<?xml version="1.0"?>
<gpx version="1.1" creator="GDAL 3.6.2" xmlns:xsi="http://www.w3.org/2001/XMLSchema-instance" xmlns:ogr="http://osgeo.org/gdal" xmlns="http://www.topografix.com/GPX/1/1" xsi:schemaLocation="http://www.topografix.com/GPX/1/1 http://www.topografix.com/GPX/1/1/gpx.xsd">
<metadata><bounds minlat="14.619600000000000" minlon="-123.277000000000001" maxlat="78.218400000000003" maxlon="102.617999999999995"/></metadata>               
<wpt lat="49.379" lon="11.3609">
  <name>Altdorf</name>
  <desc>Beton Obstacles von Stangl AG aus Waldkraiburg. Pyramide mit Ledge. Grindcorner,</desc>
  <url>https://skatemap.de/#2</url>
</wpt>
<wpt lat="49.4193" lon="11.1079">
  <name>Nürnberg Bauernfeindstr.</name>
  <desc>betonpark in langwasser. gar nicht so schlecht. gibts eigentlich nicht viel zu</desc>
  <url>https://skatemap.de/#4</url>
</wpt>
<wpt lat="49.4501" lon="11.066">
  <name>Nürnberg Burggraben</name>
  <desc>streetparcours mitten in der stadt. die rampen sind aus holz und schön hoch.</desc>
  <url>https://skatemap.de/#5</url>
</wpt>
<wpt lat="49.593" lon="11.0573">
  <name>Buckenhof bei Erlangen</name>
  <desc>soooo eine schöne miniramp und dann spart man so an der breite. grinden ist bei</desc>
  <url>https://skatemap.de/#6</url>
</wpt>
<wpt lat="49.55" lon="10.7167">
  <name>Emskirchen</name>
  <desc>ein ganzes stückchen außerhalb von emskirchen findet sich diese coole miniramp</desc>
  <url>https://skatemap.de/#8</url>
</wpt>
<wpt lat="49.5897" lon="11.0039">
  <name>Erlangen</name>
  <desc>was stand da vor 3 jahren in der 'grind': &quot;auf den ersten blick wirkt das ganze</desc>
  <url>https://skatemap.de/#9</url>
</wpt>
<wpt lat="49.3767" lon="11.2139">
  <name>Feucht</name>
  <desc>dieser streetpark befindet sich an einer schule in der nähe des feuchter</desc>
  <url>https://skatemap.de/#10</url>
</wpt>
<wpt lat="49.7184" lon="11.0469">
  <name>Forchheim</name>
  <desc>Skatepark, der den Namen nicht verdient.  Die Minirampe ist theoretisch das</desc>
  <url>https://skatemap.de/#11</url>
</wpt>
<wpt lat="49.5881" lon="11.2082">
  <name>Forth</name>
  <desc>gute miniramp! läßt sich wirklich gut fahren. der belag von obstacles und</desc>
  <url>https://skatemap.de/#12</url>
</wpt>
<wpt lat="49.4903" lon="10.9706">
  <name>Fürth Eigenes Heim</name>
  <desc>miniramp mit metallbelag, der bei starkem sonnenlicht blendet. direkt neben den</desc>
  <url>https://skatemap.de/#14</url>
</wpt>
<wpt lat="49.5209" lon="10.9859">
  <name>Fürth Stadeln</name>
  <desc>kleiner betonpark in stadeln beim bahnübergang nach herboldshof. die miniramp</desc>
  <url>https://skatemap.de/#15</url>
</wpt>
<wpt lat="49.5333" lon="11.1528">
  <name>Heroldsberg</name>
  <desc>betonstreetpark. macht einen netten eindruck. von der höhe der obstacles wohl</desc>
  <url>https://skatemap.de/#16</url>
</wpt>
<wpt lat="49.5788" lon="10.8962">
  <name>Herzogenaurach</name>
  <desc>Der wohl reichhaltigste Skatepark in Mittelfranken.  Features:  The Wall</desc>
  <url>https://skatemap.de/#17</url>
</wpt>
<wpt lat="49.2831" lon="11.4541">
  <name>Neumarkt Volksfestplatz</name>
  <desc>das coping der miniramp steht nicht heraus, was das grinden nicht unbedingt</desc>
  <url>https://skatemap.de/#18</url>
</wpt>
<wpt lat="49.2914" lon="11.4604">
  <name>Neumarkt Altdorfer Str.</name>
  <desc>betonpark. wohl hauptsächlich für skateboarder gut geeignet.</desc>
  <url>https://skatemap.de/#19</url>
</wpt>
<wpt lat="49.4205" lon="10.9718">
  <name>Oberasbach</name>
  <desc>cooler park. alle rampen haben metallbelag. die miniramp ist schön breit und</desc>
  <url>https://skatemap.de/#20</url>
</wpt>
<wpt lat="49.3093" lon="11.3623">
  <name>Postbauer</name>
  <desc>hier in postbauer-heng steht jetzt diese ex-neumarkt rampe. leicht merkwuerdige</desc>
  <url>https://skatemap.de/#21</url>
</wpt>
<wpt lat="49.5349" lon="11.0298">
  <name>Nürnberg Reutles</name>
  <desc>die street obstacles sind recht klein und aus beton. es gibt außerdem 2</desc>
  <url>https://skatemap.de/#22</url>
</wpt>
<wpt lat="49.3496" lon="11.2396">
  <name>Schwarzenbruck</name>
  <desc>die lage dieses streetparks ist ganz nett, direkt neben der schwarzach</desc>
  <url>https://skatemap.de/#23</url>
</wpt>
<wpt lat="49.4226" lon="11.0484">
  <name>Nürnberg Schweinau</name>
  <desc>am fuße des schweinauer schuttbergs befindet sich dieser streetpark. nichts</desc>
  <url>https://skatemap.de/#24</url>
</wpt>
<wpt lat="49.431" lon="11.1272">
  <name>Nürnberg Steintribüne</name>
  <desc>beliebter treffpunkt für inlineskater, genau wie das restliche gelände um den</desc>
  <url>https://skatemap.de/#25</url>
</wpt>
<wpt lat="49.4459" lon="11.0454">
  <name>Nürnberg Bertha-von-Suttner-str.</name>
  <desc>skatepark der kleineren sorte. alle rampen sind von finlek. die minirampe ist</desc>
  <url>https://skatemap.de/#26</url>
</wpt>
<wpt lat="49.3451" lon="11.1544">
  <name>Wendelstein</name>
  <desc>bmx-park des wendelsteiner radlerclubs, der aber natürlich auch inlinern und</desc>
  <url>https://skatemap.de/#27</url>
</wpt>
<wpt lat="49.4364" lon="10.9558">
  <name>Zirndorf</name>
  <desc>ordentlicher skatepark mit miniramp, streetsection, flatland und hockeyfeld. die</desc>
  <url>https://skatemap.de/#28</url>
</wpt>
<wpt lat="50.225" lon="11.9369">
  <name>Schwarzenbach an der Saale</name>
  <desc>in schwarzenbach gibt es einen kleinen asphalt skatepark mit minirampe,gebaut</desc>
  <url>https://skatemap.de/#29</url>
</wpt>
<wpt lat="52.0988" lon="5.12787">
  <name>Utrecht</name>
  <desc>Der Park selbst besteht aus beton fertigteilmodulen, leider nicht immer ganz</desc>
  <url>https://skatemap.de/#30</url>
</wpt>
<wpt lat="47.3022" lon="9.08599">
  <name>Wattwil</name>
  <desc>Abgefahrenes Layout, mit einigen nicht durchdachten ideen, dafür aber auch mit</desc>
  <url>https://skatemap.de/#31</url>
</wpt>
<wpt lat="51.4484" lon="5.45589">
  <name>Eindhoven Alte Skatehalle</name>
  <desc>ACHTUNG: DIE SKATEHALLE IST GESCHLOSSEN, DAFÜR GIBT ES EINE NEUE, STEHT IN DER</desc>
  <url>https://skatemap.de/#32</url>
</wpt>
<wpt lat="49.2391" lon="10.9749">
  <name>Abenberg</name>
  <desc>hat alles,was man zum skaten braucht,eine kleine 1,20er minirampe,die nicht soo</desc>
  <url>https://skatemap.de/#33</url>
</wpt>
<wpt lat="47.4923" lon="9.68741">
  <name>Hard bei Bregenz</name>
  <desc>großer skatepark komplett aus beton,der alles beinhaltet,was man für die</desc>
  <url>https://skatemap.de/#34</url>
</wpt>
<wpt lat="49.68" lon="10.9361">
  <name>Hemhofen</name>
  <desc>Viel Asphalt und ein wenig Beton. Der Park ähnelt dem in Hirschau bei Bamberg.</desc>
  <url>https://skatemap.de/#35</url>
</wpt>
<wpt lat="49.2999" lon="10.5547">
  <name>Ansbach Westtangente</name>
  <desc>Sehr guter Skatepark gebaut von IOU-Ramps. Mit grosser Bank und Quarterpipe,</desc>
  <url>https://skatemap.de/#36</url>
</wpt>
<wpt lat="49.5585" lon="10.8788">
  <name>Herzogenaurach Gymnasium</name>
  <desc>Pur Street. Treppen, Curbs und more. Vorsicht Hausmeister!</desc>
  <url>https://skatemap.de/#37</url>
</wpt>
<wpt lat="49.5917" lon="10.7675">
  <name>Oberreichenbach</name>
  <desc>Auch Oberreichenbach läßt Kinderherzen höher schlagen. Ein gar nicht</desc>
  <url>https://skatemap.de/#38</url>
</wpt>
<wpt lat="47.6826" lon="9.14846">
  <name>Konstanz-Wollmatingen</name>
  <desc>der skatepark wurde von www.bowl.ch gebaut,reiner streetpark,aus beton mit</desc>
  <url>https://skatemap.de/#40</url>
</wpt>
<wpt lat="47.9843" lon="8.80614">
  <name>Tuttlingen</name>
  <desc>umrahmt von einem wirklich abgefahrenen fetten kinderspielplatz,großen wiesen</desc>
  <url>https://skatemap.de/#42</url>
</wpt>
<wpt lat="48.7212" lon="9.2641">
  <name>Ostfildern</name>
  <desc>fettes grundstück,das einen basketball/bolzplatz beinhaltet,aber auch ne echt</desc>
  <url>https://skatemap.de/#43</url>
</wpt>
<wpt lat="48.7293" lon="9.32117">
  <name>Oberesslingen</name>
  <desc>was natürlich das beste dran ist,der komplette park ist überdacht,was es auch</desc>
  <url>https://skatemap.de/#44</url>
</wpt>
<wpt lat="48.6246" lon="10.2356">
  <name>Giengen</name>
  <desc>kompletter Betonskatepark von www.bowl.ch ,kostenlos zu fahren.reiner</desc>
  <url>https://skatemap.de/#45</url>
</wpt>
<wpt lat="41.5287" lon="2.43331">
  <name>Mataro bei Barcelona</name>
  <desc>Abgefahrener betonpark,gebaut von http://www.gestaltskate.com ,die übrigens</desc>
  <url>https://skatemap.de/#46</url>
</wpt>
<wpt lat="41.4432" lon="2.17118">
  <name>Barcelona City</name>
  <desc>Krasser und berühmter Skatepark aus zahllosen Skatevideos, so ziemlich jeder</desc>
  <url>https://skatemap.de/#47</url>
</wpt>
<wpt lat="49.5309" lon="10.91">
  <name>Obermichelbach</name>
  <desc>Quarter-Pipe, Mini-Fun-Box, Grindbox, Flatrail</desc>
  <url>https://skatemap.de/#48</url>
</wpt>
<wpt lat="49.5822" lon="10.6028">
  <name>Neustadt a.d.Aisch</name>
  <desc></desc>
  <url>https://skatemap.de/#49</url>
</wpt>
<wpt lat="50.3213" lon="10.2202">
  <name>Bad Neustadt a.d. Saale</name>
  <desc>es gibt ne halfpipe, ne recht große quater, 2 funboxes, ne grindbox und ein</desc>
  <url>https://skatemap.de/#50</url>
</wpt>
<wpt lat="49.5749" lon="10.6318">
  <name>Höchstadt a.d. Aisch</name>
  <desc></desc>
  <url>https://skatemap.de/#51</url>
</wpt>
<wpt lat="49.4818" lon="11.2303">
  <name>Röthenbach a.d. Pegnitz</name>
  <desc></desc>
  <url>https://skatemap.de/#52</url>
</wpt>
<wpt lat="49.4427" lon="10.3633">
  <name>Marktbergel</name>
  <desc>Skatepark mit Curb Cut, Quarter, Bank und Curb. Gute Masse da von IOU-Ramps</desc>
  <url>https://skatemap.de/#53</url>
</wpt>
<wpt lat="49.4365" lon="11.8674">
  <name>Amberg</name>
  <desc>Großer Platz mit Miniramp und 2 Lines. Großer Bank mit Subbox. Curbcut mit</desc>
  <url>https://skatemap.de/#54</url>
</wpt>
<wpt lat="49.4402" lon="11.8436">
  <name>Amberg Hockermühlbad</name>
  <desc>Ein Denkmal des Skateparkbaus in den 90er Jahren. Der Versuch eines</desc>
  <url>https://skatemap.de/#55</url>
</wpt>
<wpt lat="50.0942" lon="10.9962">
  <name>Bad Staffelstein</name>
  <desc>Hohe Anlauframpen mit Funbox und Pyra. Die Bank mit Jumpramp und die Funbox sind</desc>
  <url>https://skatemap.de/#56</url>
</wpt>
<wpt lat="49.9567" lon="11.5959">
  <name>Bayreuth Schanz</name>
  <desc>Skatepark fast komplett aus Teer, ähnlich wie Schwarzenbach an der Saale und</desc>
  <url>https://skatemap.de/#57</url>
</wpt>
<wpt lat="49.8218" lon="11.0033">
  <name>Hirschaid</name>
  <desc>Wenn Ihr mal eine neues Jugendzimmer kaufen wollt bei Neubert, solltet Ihr</desc>
  <url>https://skatemap.de/#58</url>
</wpt>
<wpt lat="50.3376" lon="11.9107">
  <name>Hof</name>
  <desc>Grosser Skatepark mit allen was das Herz begehrt, allerdings in sehr</desc>
  <url>https://skatemap.de/#59</url>
</wpt>
<wpt lat="49.5021" lon="10.4282">
  <name>Bad Windsheim</name>
  <desc>Eine neue Halfpipe in Franken. Schee. ca. 3,30 m hoch und 5 m breit</desc>
  <url>https://skatemap.de/#60</url>
</wpt>
<wpt lat="50.2302" lon="11.7268">
  <name>Helmbrechts</name>
  <desc>Wirklich guter skatepark,dem man ansieht,das er von skater für skater gebaut</desc>
  <url>https://skatemap.de/#61</url>
</wpt>
<wpt lat="44.5299" lon="11.3691">
  <name>Bologna</name>
  <desc>Kleines Update zu Bologna: die haben seit ende August jetzt 4 Flutlicht Masten.</desc>
  <url>https://skatemap.de/#62</url>
</wpt>
<wpt lat="45.4595" lon="10.5538">
  <name>Desenzano del Garda am Gardasee</name>
  <desc>hammerharter streetpark,ein absolut purer streetpark,nicht mal ne klitzekleine</desc>
  <url>https://skatemap.de/#63</url>
</wpt>
<wpt lat="45.8919" lon="10.843">
  <name>Riva del garda am Gardasee</name>
  <desc>perfekte minirampe,ohne scheiss,vielleicht die beste minirampe,die es gibt.das</desc>
  <url>https://skatemap.de/#64</url>
</wpt>
<wpt lat="47.7135" lon="9.39141">
  <name>Markdorf</name>
  <desc>Neben einem sehr smoothen Snakerun (teilweise mit Coping) gibt\'s eine Quarter,</desc>
  <url>https://skatemap.de/#65</url>
</wpt>
<wpt lat="50.2062" lon="10.0842">
  <name>Bad Kissingen</name>
  <desc>1x Halfpipe, 1x Funbox, 1x Quarter, 1x Flatrail Die Bilder dürften für sich</desc>
  <url>https://skatemap.de/#66</url>
</wpt>
<wpt lat="49.519" lon="9.33078">
  <name>Buchen im Odenwald</name>
  <desc>1x kleine Quarter, 1x große Quarter, 1x Flatrail, 1x Spine, 1x Funbox Definitiv</desc>
  <url>https://skatemap.de/#67</url>
</wpt>
<wpt lat="52.4017" lon="4.89588">
  <name>Amsterdam Skatehalle Everland</name>
  <desc>Eintritt:5 Euro Öffnungszeiten:Dienstag - Freitag 14.00 - 22.00Uhr Samstag -</desc>
  <url>https://skatemap.de/#68</url>
</wpt>
<wpt lat="52.3813" lon="4.88051">
  <name>Amsterdam Marnixbowl</name>
  <desc>Bowlfacts:Ok,es ist ein Fertigelement Bowl,ABER:der beste Bowl in dieser</desc>
  <url>https://skatemap.de/#69</url>
</wpt>
<wpt lat="49.1416" lon="9.22208">
  <name>Heilbronn Finanzamt-Bowl</name>
  <desc>Neben der Pool-Snakerun-Kombi in Heilbronn-Frankenbach, dem Streetpark am</desc>
  <url>https://skatemap.de/#71</url>
</wpt>
<wpt lat="49.1624" lon="9.17704">
  <name>Heilbronn Frankenbach (Snakerun/Bowl-Combi)</name>
  <desc>Drei verschieden tiefe Bowls mit einer Insel in der Mitte und einem</desc>
  <url>https://skatemap.de/#72</url>
</wpt>
<wpt lat="49.1338" lon="9.20529">
  <name>Heilbronn Frankenstadion</name>
  <desc>siehe Bilder</desc>
  <url>https://skatemap.de/#73</url>
</wpt>
<wpt lat="49.1338" lon="9.20529">
  <name>Heilbronn Frankenstation unter der Brücke</name>
  <desc>siehe Bilder</desc>
  <url>https://skatemap.de/#74</url>
</wpt>
<wpt lat="47.6651" lon="9.35087">
  <name>Immenstaad am Bodensee</name>
  <desc>Der Park: 1x gute Miniramp aus Beton, die über eine Hip mit der Streetfläche</desc>
  <url>https://skatemap.de/#75</url>
</wpt>
<wpt lat="49.7434" lon="9.84345">
  <name>Kist bei Würzburg</name>
  <desc>1x Bank, 1x Quarter, 1x Funbox. Alles aus Beton und gut verarbeitet. Könnte</desc>
  <url>https://skatemap.de/#76</url>
</wpt>
<wpt lat="48.2182" lon="11.5622">
  <name>München-Hasenbergl</name>
  <desc>Neben drei kleineren Streetrampen aus Beton (leider nur eine mit auf den Fotos)</desc>
  <url>https://skatemap.de/#77</url>
</wpt>
<wpt lat="48.101" lon="11.6574">
  <name>München Pfanni-Hills</name>
  <desc>Bei den Pfanni Hills dürfte es sich um DEN ältesten Skatepark Deutschlands</desc>
  <url>https://skatemap.de/#78</url>
</wpt>
<wpt lat="49.3728" lon="10.2215">
  <name>Neusitz bei Ansbach</name>
  <desc>Dieses Funbox-mäßige Dingens können wir mal getrost vergessen. Das Rail sieht</desc>
  <url>https://skatemap.de/#79</url>
</wpt>
<wpt lat="50.5013" lon="12.1606">
  <name>Plauen</name>
  <desc>Die Erwartungen waren niedrig, als wir uns auf den Weg nach Plauen machten. Dort</desc>
  <url>https://skatemap.de/#80</url>
</wpt>
<wpt lat="49.3877" lon="8.57517">
  <name>Schwetzingen</name>
  <desc>Verrückte Miniramp mit schnellem Belag und tausend Spielereien, die teilweise</desc>
  <url>https://skatemap.de/#81</url>
</wpt>
<wpt lat="51.5821" lon="4.99566">
  <name>Tilburg</name>
  <desc>Gebaut von Carve.nl in Fertigteil Bauweise,ist das Layout ganz geil und</desc>
  <url>https://skatemap.de/#82</url>
</wpt>
<wpt lat="51.9168" lon="4.47613">
  <name>Rotterdam Metal-Skatepark</name>
  <desc>Krasser Park,leider hat es geregnet,so das wir nicht fahren konnten,deswegen ist</desc>
  <url>https://skatemap.de/#83</url>
</wpt>
<wpt lat="52.079" lon="4.31351">
  <name>Den Haag Maliveld Cradle</name>
  <desc>Ganz neuer Park,von Carve.nl gebaut.Konnte den leider wegen starken Regen nicht</desc>
  <url>https://skatemap.de/#84</url>
</wpt>
<wpt lat="52.09" lon="4.29387">
  <name>Scheveningen</name>
  <desc>Leider war dauerregen angesagt,so das ich den nicht fahren konnte.Ich geh aber</desc>
  <url>https://skatemap.de/#85</url>
</wpt>
<wpt lat="52.4641" lon="4.80746">
  <name>Zaanstad Zaandam</name>
  <desc>Krasser Skatepark,in jeder Hinsicht.Sehr groß,geschätzte 1500m²,alles aus</desc>
  <url>https://skatemap.de/#86</url>
</wpt>
<wpt lat="52.4134" lon="4.91554">
  <name>Amsterdam Landsmeer</name>
  <desc>Konnte leider nicht drin fahren,dicke Pfützen drin.Aber ich vermute mal,so</desc>
  <url>https://skatemap.de/#87</url>
</wpt>
<wpt lat="52.3745" lon="5.1986">
  <name>Almere</name>
  <desc>Hm...was soll man zu diesem Park nur sagen?Angeblich soll er erst 4 Jahre alt</desc>
  <url>https://skatemap.de/#88</url>
</wpt>
<wpt lat="49.483" lon="8.43361">
  <name>Ludwigshafen</name>
  <desc>Der Snakerun ist wirklich einer der besten reinen Snakeruns in Deutschlands.</desc>
  <url>https://skatemap.de/#89</url>
</wpt>
<wpt lat="48.3911" lon="10.8311">
  <name>Neusäß Augsburg</name>
  <desc>Bei dem \&quot;Snakerun\&quot; handelt es sich um eine geteerte Mulde im Boden, mit</desc>
  <url>https://skatemap.de/#90</url>
</wpt>
<wpt lat="48.1273" lon="11.6893">
  <name>München Buga</name>
  <desc>Der Park selbst...ja,was soll man da sagen:viel Geld zum Fenster</desc>
  <url>https://skatemap.de/#91</url>
</wpt>
<wpt lat="51.291" lon="13.1044">
  <name>Oschatz</name>
  <desc>Facts:im zuge der Landesgartenschau 2006 in Oschatz,haben die verantwortlichen</desc>
  <url>https://skatemap.de/#92</url>
</wpt>
<wpt lat="52.0941" lon="13.1636">
  <name>Luckenwalde</name>
  <desc>Der Skatepark wurde vom Concrete Rudolph gebaut.Das Layout ist gelungen,der Park</desc>
  <url>https://skatemap.de/#93</url>
</wpt>
<wpt lat="50.8342" lon="3.27033">
  <name>Kortrijk</name>
  <desc>Öffnet im November 2005. Bulit by Tim Payne. No Words.</desc>
  <url>https://skatemap.de/#94</url>
</wpt>
<wpt lat="49.9717" lon="9.13178">
  <name>Aschaffenburg</name>
  <desc>Auf zwei geteerten Ebenen befinden sich mehrere Beton-Fertigelemente: Miniramp,</desc>
  <url>https://skatemap.de/#95</url>
</wpt>
<wpt lat="48.2712" lon="10.883">
  <name>Königsbrunn</name>
  <desc>totale geldverschwendung. sowas kommt raus, wenn man landschaftsgärtner</desc>
  <url>https://skatemap.de/#96</url>
</wpt>
<wpt lat="52.5086" lon="13.4515">
  <name>Berlin Skatehalle</name>
  <desc>mehr infos zu öffnungszeiten und Eintritt unter www.skatehalle-berlin.de</desc>
  <url>https://skatemap.de/#97</url>
</wpt>
<wpt lat="50.8792" lon="6.00628">
  <name>Heerlen Skatehalle</name>
  <desc>Geile Halle auch für MTB Artisten. Mehr Infos zu Öffnungszeiten und Eintritt</desc>
  <url>https://skatemap.de/#98</url>
</wpt>
<wpt lat="50.0556" lon="8.82112">
  <name>Heusenstamm</name>
  <desc>Schöner Park. Stichwort BMX lastig</desc>
  <url>https://skatemap.de/#99</url>
</wpt>
<wpt lat="52.4518" lon="13.5931">
  <name>Berlin Mellowpark</name>
  <desc>Ein Ort an dem BMX Geschichte mit geschrieben wird...</desc>
  <url>https://skatemap.de/#100</url>
</wpt>
<wpt lat="54.3117" lon="13.0325">
  <name>Stralsund</name>
  <desc>Eigentlich grosser Skatepark. Mit Kicker-Bank, Grind Pyra-Box, Pool, Hillramp</desc>
  <url>https://skatemap.de/#101</url>
</wpt>
<wpt lat="52.2676" lon="6.77565">
  <name>Hengelo thekick</name>
  <desc>Die Halle beeindruckt, wenn man sie denn mal gefunden hat :-), erst mal durch</desc>
  <url>https://skatemap.de/#102</url>
</wpt>
<wpt lat="49.4802" lon="10.7178">
  <name>Wilhermsdorf</name>
  <desc>Leider nix</desc>
  <url>https://skatemap.de/#103</url>
</wpt>
<wpt lat="49.508" lon="11.3711">
  <name>Reichenschwand</name>
  <desc>Anhäufung von Finlek Ramps</desc>
  <url>https://skatemap.de/#104</url>
</wpt>
<wpt lat="48.1992" lon="11.6058">
  <name>München Kieferngarten</name>
  <desc>Zum großteil völlig verpushter Skatepark, kaum grind- und slidebares</desc>
  <url>https://skatemap.de/#105</url>
</wpt>
<wpt lat="50.8803" lon="12.0717">
  <name>Gera</name>
  <desc>Geiler IOU Skatepark mit fetter Miniramp und guter Streetfläche.</desc>
  <url>https://skatemap.de/#106</url>
</wpt>
<wpt lat="52.0751" lon="5.23739">
  <name>Zeist</name>
  <desc>Brandneuer Betonpark, gebaut wie immer von Carve. Diesmal allerdings komplett</desc>
  <url>https://skatemap.de/#107</url>
</wpt>
<wpt lat="52.459" lon="4.81603">
  <name>Zaanstad Skatehalle Insaen</name>
  <desc>Skatehalle in Zaanstad-Zaandam, 20km von Amsterdam entfernt. Die Halle gibt es</desc>
  <url>https://skatemap.de/#108</url>
</wpt>
<wpt lat="52.2099" lon="5.96974">
  <name>Apeldoorn</name>
  <desc>Neuer Bowl aus Fertigteil Elementen von ConcreteRudolph. Spaßiges kleines Teil,</desc>
  <url>https://skatemap.de/#109</url>
</wpt>
<wpt lat="51.4484" lon="5.45589">
  <name>Eindhoven Skatehalle Area 51</name>
  <desc>Krass, Krasser, Area51! Das kommt einen in den Sinn wenn man in die nagelneue</desc>
  <url>https://skatemap.de/#110</url>
</wpt>
<wpt lat="52.1245" lon="6.2425">
  <name>Zutphen</name>
  <desc>Brandneuer Betonpark in Zutphen, gebaut wie immer von Carve aus Holland. Das</desc>
  <url>https://skatemap.de/#111</url>
</wpt>
<wpt lat="52.2483" lon="6.17234">
  <name>Deventer Skatehalle Burnside</name>
  <desc>Schon etwas ältere Skatehalle in Deventer, keine 16km vom Betonpark in Zutphen</desc>
  <url>https://skatemap.de/#112</url>
</wpt>
<wpt lat="49.35" lon="11.3">
  <name>Burgthann</name>
  <desc>soooo eine schöne miniramp und dann spart man so an der breite. grinden ist bei</desc>
  <url>https://skatemap.de/#7</url>
</wpt>
<wpt lat="49.4881" lon="10.9371">
  <name>Burgfarnbach bei Fürth</name>
  <desc>das iser, brandneu, für 25000flocken, von meinem neuen feind, der stangl ag</desc>
  <url>https://skatemap.de/#113</url>
</wpt>
<wpt lat="52.5245" lon="13.3171">
  <name>Berlin Mierendorfplatz-Neues Ufer</name>
  <desc>Relativ neuer Skatepark vom Concrete Rudolph. Relativ deswegen, weil zwei bis</desc>
  <url>https://skatemap.de/#114</url>
</wpt>
<wpt lat="50.0578" lon="8.68195">
  <name>Neu-Isenburg Tannewald</name>
  <desc>Herrliche Waldlage. Schöner Skatepark mit Miniramp und großen Quarterpipes.</desc>
  <url>https://skatemap.de/#115</url>
</wpt>
<wpt lat="48.0961" lon="7.95789">
  <name>Waldkirch</name>
  <desc>Schöne klasssche Miniramp mit Spine. Ausserdem lustige Beton Quarterpipes und</desc>
  <url>https://skatemap.de/#116</url>
</wpt>
<wpt lat="48.6817" lon="10.1566">
  <name>Heidenheim</name>
  <desc>In Heidenheim a. d. Brenz in Baden-Württemberg wurde im Zuge einer</desc>
  <url>https://skatemap.de/#117</url>
</wpt>
<wpt lat="48.2472" lon="11.4588">
  <name>Dachau</name>
  <desc>In Dachau bei München steht ein brandneuer Betonpark von Bowl Construction.</desc>
  <url>https://skatemap.de/#118</url>
</wpt>
<wpt lat="49.7597" lon="9.5128">
  <name>Wertheim</name>
  <desc>Der Park besteht aus Beton-Fertigteilen von Concrete Rudolph sowie einem</desc>
  <url>https://skatemap.de/#119</url>
</wpt>
<wpt lat="49.7502" lon="6.6767">
  <name>Trier</name>
  <desc>Der erste Ortbeton-Skatepark in Rheinland-Pfalz wurde im Rahmen der</desc>
  <url>https://skatemap.de/#120</url>
</wpt>
<wpt lat="49.0207" lon="12.0688">
  <name>Regensburg Prüfening</name>
  <desc>Es handelt sich um einen leicht willenlos hingeteerten Snakerun im weitesten</desc>
  <url>https://skatemap.de/#121</url>
</wpt>
<wpt lat="50.2562" lon="10.9617">
  <name>Coburg Minirampe in Halle</name>
  <desc>Schöne Mini in einer Halle + ein paar Streetobstacles  Klein und</desc>
  <url>https://skatemap.de/#122</url>
</wpt>
<wpt lat="49.0224" lon="12.0597">
  <name>Regensburg Donaupark</name>
  <desc>Dermaßen verpfuschten Skatepark, dass es einer   Sau graust. Das erste, was</desc>
  <url>https://skatemap.de/#123</url>
</wpt>
<wpt lat="49.568" lon="10.8791">
  <name>Herzogenaurach Mini-Mini-Ramp</name>
  <desc>Mitten in der Stadt eine Mini-Mini-Ramp ( gebaut für eine   Sportausstellung</desc>
  <url>https://skatemap.de/#124</url>
</wpt>
<wpt lat="43.258" lon="5.37665">
  <name>Marseille Bowl</name>
  <desc>Zweiffellos einer der bekanntestens Bowls der Welt. Außer Bowl gibts noch 4er</desc>
  <url>https://skatemap.de/#156</url>
</wpt>
<wpt lat="49.509" lon="11.2673">
  <name>Lauf</name>
  <desc>Kleinerer Skatepark mit Bank,kleiner Pyramide,Curbcut mit Ledge,Curbbox mit 2</desc>
  <url>https://skatemap.de/#125</url>
</wpt>
<wpt lat="49.5057" lon="11.4378">
  <name>Hersbruck</name>
  <desc>Schon etwas   älter,aber noch ganz gut fahrbar..</desc>
  <url>https://skatemap.de/#126</url>
</wpt>
<wpt lat="49.0259" lon="12.1384">
  <name>Regensburg Spiegelei-Park</name>
  <desc>Der Park besteht aus einigen großen Wobbels   und Banks aus Teer, die zwar</desc>
  <url>https://skatemap.de/#127</url>
</wpt>
<wpt lat="50.8355" lon="10.9542">
  <name>Arnstadt</name>
  <desc>Der Park besteht aus Beton-Fertigteilen der Firma Skate Stone.   Mit dabei</desc>
  <url>https://skatemap.de/#128</url>
</wpt>
<wpt lat="50.1938" lon="10.0601">
  <name>Bad Kissingen Bowl</name>
  <desc>Naja, verplant ist das Ding schon. Das Ganze soll   wohl so ein Zwischending</desc>
  <url>https://skatemap.de/#129</url>
</wpt>
<wpt lat="50.9002" lon="11.5716">
  <name>Jena Winzerla</name>
  <desc>In Jena gibt es zwei kleine Pools. Beide liegen in   unterschiedlichen</desc>
  <url>https://skatemap.de/#130</url>
</wpt>
<wpt lat="50.9316" lon="11.587">
  <name>Jena Kritzegraben</name>
  <desc>In Jena gibt es zwei kleine Pools. Beide liegen in   unterschiedlichen</desc>
  <url>https://skatemap.de/#131</url>
</wpt>
<wpt lat="50.6337" lon="10.7135">
  <name>Suhl</name>
  <desc>In Suhl, im Thüringer Wald gibt es einen relativ großen   Streetpark, der</desc>
  <url>https://skatemap.de/#132</url>
</wpt>
<wpt lat="47.5028" lon="9.73631">
  <name>Bregenz</name>
  <desc>Kleinerer Park in der   Nähe des Festspielplatzes....  Eine grosse</desc>
  <url>https://skatemap.de/#141</url>
</wpt>
<wpt lat="50.2732" lon="10.9577">
  <name>Coburg Funbox</name>
  <desc>Der Skatepark ist 1997 von Markus Grempel (BMX Pro) geplant und entworfen</desc>
  <url>https://skatemap.de/#142</url>
</wpt>
<wpt lat="48.7733" lon="9.18146">
  <name>Stuttgart Nuttenpark</name>
  <desc>Nuttenpark ? Hört sich ziemlich seltsam an. Der Name resultiert aus seiner</desc>
  <url>https://skatemap.de/#163</url>
</wpt>
<wpt lat="51.3019" lon="12.3746">
  <name>Leipzig Conne Island</name>
  <desc>Der Skatepark im Conne Island ist die Top-Adresse in Leipzig. Er wurde Anfang</desc>
  <url>https://skatemap.de/#148</url>
</wpt>
<wpt lat="51.3205" lon="12.2984">
  <name>Leipzig Lütznerstrasse</name>
  <desc>Das Skateparkprojekt in Leipzig-Grünau wurde von der Stadt finanziert und</desc>
  <url>https://skatemap.de/#149</url>
</wpt>
<wpt lat="51.3482" lon="12.3502">
  <name>Leipzig Welle</name>
  <desc>De Welle ist eigentlich kein klassischer Skatepark. Es handelt sich um eine</desc>
  <url>https://skatemap.de/#150</url>
</wpt>
<wpt lat="49.4694" lon="7.14052">
  <name>St. Wendel</name>
  <desc>Pool, Miniramp, Streetpark mit allen Spielereien die dazu gehören. !siehe pics!</desc>
  <url>https://skatemap.de/#153</url>
</wpt>
<wpt lat="49.2537" lon="6.94312">
  <name>Burbach</name>
  <desc>Dieser Skatepark verfügt über zwei Quaterpipes, drei Funboxes, Pyra Stufen und</desc>
  <url>https://skatemap.de/#155</url>
</wpt>
<wpt lat="51.0465" lon="13.7458">
  <name>Dresden Lingnerallee</name>
  <desc>Flache Quarterpipes, ein Wallride, lange Banks, Handrails, Curbs, Stairs..</desc>
  <url>https://skatemap.de/#159</url>
</wpt>
<wpt lat="51.345" lon="12.1798">
  <name>Leipzig Nova Eventis</name>
  <desc>Der größte Einkaufspark auf der grünen Wiese in Deutschland hieß einmal</desc>
  <url>https://skatemap.de/#164</url>
</wpt>
<wpt lat="52.9281" lon="9.24889">
  <name>Verden</name>
  <desc>Skatepark mit Quarterpipe, Bank, Pyra,2 Funboxen, Coach und Olliebox</desc>
  <url>https://skatemap.de/#167</url>
</wpt>
<wpt lat="52.0069" lon="10.139">
  <name>Bockenem</name>
  <desc>Skatepark mit Pyra, Speedbank, Quarterpipe, Treppe, Curb und Rail. Gebaut von &lt;a</desc>
  <url>https://skatemap.de/#168</url>
</wpt>
<wpt lat="53.5854" lon="7.78278">
  <name>Wittmund</name>
  <desc>Skatepark mit Speedbank, Quarterpipe, Treppenset , Pyra, Rail und Curb. Gebaut</desc>
  <url>https://skatemap.de/#169</url>
</wpt>
<wpt lat="47.4931" lon="8.71722">
  <name>Winterthur Block</name>
  <desc>Indoor-Park mit super Bowl / Miniramp, sehr gutem Streetpark.  Im gleichen Haus</desc>
  <url>https://skatemap.de/#196</url>
</wpt>
<wpt lat="53.5516" lon="10.0241">
  <name>Hamburg i-Punkt</name>
  <desc>Netter in- und outdoor skatepark. Draussen gibt\'s nen neuen Streetpark von</desc>
  <url>https://skatemap.de/#171</url>
</wpt>
<wpt lat="49.7518" lon="11.5566">
  <name>Pegnitz</name>
  <desc>Gammlige Funbox, ganz nettes Rail, ziemlich kaputte Miniramp.</desc>
  <url>https://skatemap.de/#183</url>
</wpt>
<wpt lat="51.2559" lon="9.40774">
  <name>Baunatal</name>
  <desc>Skatepark mit Miniramp, Pyra mit Ledge und Rail, Banks und Quarterpipe</desc>
  <url>https://skatemap.de/#174</url>
</wpt>
<wpt lat="52.3158" lon="6.92602">
  <name>Oldenzaal, Old</name>
  <desc>Old School Snakerun aus den 80er Jahren</desc>
  <url>https://skatemap.de/#175</url>
</wpt>
<wpt lat="52.416" lon="7.08472">
  <name>Nordhorn</name>
  <desc>Skatepark in Nordhorn</desc>
  <url>https://skatemap.de/#176</url>
</wpt>
<wpt lat="49.7786" lon="11.188">
  <name>Ebermannstadt</name>
  <desc>Pyra mit Bank an der Wiesent</desc>
  <url>https://skatemap.de/#177</url>
</wpt>
<wpt lat="48.4095" lon="11.9848">
  <name>Wartenberg</name>
  <desc>Skateanlage mit Quarterpipe, Curb Cut mit Rail und Ledge und Bank Hip. Gebaut</desc>
  <url>https://skatemap.de/#178</url>
</wpt>
<wpt lat="54.0242" lon="11.6613">
  <name>Neubukow</name>
  <desc>Skatepark mit Quarterpipe, Bank, Speedramp, Pyra, Olliebox,Rail, Curb und</desc>
  <url>https://skatemap.de/#179</url>
</wpt>
<wpt lat="52.2704" lon="11.8659">
  <name>Burg b.   Magdeburg</name>
  <desc>kleiner Skatepark mit Beton Fertigteilen. Der Skatepark ist zusammen auf den</desc>
  <url>https://skatemap.de/#180</url>
</wpt>
<wpt lat="52.5369" lon="7.37457">
  <name>Lingen Dieksee</name>
  <desc>Skatepark mit breiter Speedbank, Quarterpipe, Olliebox, Pyra mit Curb und Bank</desc>
  <url>https://skatemap.de/#181</url>
</wpt>
<wpt lat="48.4086" lon="15.6197">
  <name>Krems a. d. Donau</name>
  <desc>Park mit schöner breiter Miniramp mit Skatesmart Belag sowie Streetpark mit</desc>
  <url>https://skatemap.de/#182</url>
</wpt>
<wpt lat="53.1237" lon="17.9956">
  <name>Bydgoszcz, Mini</name>
  <desc>Mini Ramp in Bydgoszcz/Polen -  von www.Techramps.com</desc>
  <url>https://skatemap.de/#185</url>
</wpt>
<wpt lat="52.5663" lon="20.1572">
  <name>G&amp;#322;ogow,</name>
  <desc>Skatepark in Gtogow/Polen</desc>
  <url>https://skatemap.de/#186</url>
</wpt>
<wpt lat="48.3711" lon="10.8467">
  <name>Augsburg Pool Hagenmähder Straße</name>
  <desc>Dass der Süden rockt, wenn es um gute   Skateparks aus Beton geht, weiß</desc>
  <url>https://skatemap.de/#191</url>
</wpt>
<wpt lat="51.3992" lon="16.2021">
  <name>Lubin</name>
  <desc>In Lubin/Polen steht dieser Outdoor Skatepark, gebaut von www.Techramps.com</desc>
  <url>https://skatemap.de/#189</url>
</wpt>
<wpt lat="51.088" lon="16.9574">
  <name>Wroclaw</name>
  <desc>Indoor Skatepark in Wroclaw/Polen, gebaut von www.techramps.com</desc>
  <url>https://skatemap.de/#190</url>
</wpt>
<wpt lat="51.5158" lon="7.37559">
  <name>Dortmund Bärenbruch</name>
  <desc>Bank mit Jumpramp, und Funbox mit Pyra, Ledge, Londongap und Curbcut. Anlauf</desc>
  <url>https://skatemap.de/#193</url>
</wpt>
<wpt lat="47.437" lon="11.8865">
  <name>Brixlegg The Cradle Skatepark</name>
  <desc>Sensationeller Bowl, gebaut von www.dreamlandskateparks.com, mit der ersten</desc>
  <url>https://skatemap.de/#198</url>
</wpt>
<wpt lat="50.5741" lon="8.69006">
  <name>Giessen Skate-Lounge Skatehalle</name>
  <desc>Rampenfläche: Großes London Gap, Funbox mit Kinkrail, Curb und   Hausdach</desc>
  <url>https://skatemap.de/#197</url>
</wpt>
<wpt lat="39.57" lon="2.65054">
  <name>Mallorca Palma RealstreetSpot</name>
  <desc>Placa Sa Faxina: Bekannter Realstreetspot aus einigen Skatevideos,   der Platz</desc>
  <url>https://skatemap.de/#201</url>
</wpt>
<wpt lat="52.6311" lon="13.4927">
  <name>Berlin Buch</name>
  <desc>Miniramp(150cm hoch), Pyra, Curb, Wheelietable, Rail, Quarter</desc>
  <url>https://skatemap.de/#202</url>
</wpt>
<wpt lat="50.0161" lon="10.1842">
  <name>Bergrheinfeld</name>
  <desc>Ein ganz-ok skatepark der in die richtung \&quot;concrete rudolph\&quot; geht. Einfach</desc>
  <url>https://skatemap.de/#205</url>
</wpt>
<wpt lat="50.0462" lon="10.2431">
  <name>Schweinfurt</name>
  <desc>Kleiner skatepark mit einer funbox, ner quarter und 2 grindboxen... alles selbst</desc>
  <url>https://skatemap.de/#206</url>
</wpt>
<wpt lat="51.2155" lon="7.63138">
  <name>Lüdenscheid</name>
  <desc>Lüdenscheid / Jahnhalle Jahnstrasse 14 58511 Lüdenscheid Telefon: 02351 -</desc>
  <url>https://skatemap.de/#204</url>
</wpt>
<wpt lat="52.5653" lon="13.4935">
  <name>Berlin Darßerstrasse</name>
  <desc>Niedrige Obstacles gut für Anfänger. Gute Curbs und Wheelietables. Spine,</desc>
  <url>https://skatemap.de/#207</url>
</wpt>
<wpt lat="53.9617" lon="10.878">
  <name>Lübeck Travemünde</name>
  <desc>ne kleiner streetfläche mit einer pyra, nem curb ( etwa 2,5, meter und 30cm</desc>
  <url>https://skatemap.de/#209</url>
</wpt>
<wpt lat="51.2723" lon="12.3703">
  <name>Markkleeberg</name>
  <desc>Ein kleiner grausliger Skatepark am Südrand von Leipzig. Er besteht aus alten</desc>
  <url>https://skatemap.de/#210</url>
</wpt>
<wpt lat="51.3451" lon="12.4044">
  <name>Leipzig</name>
  <desc>inkonsequente Wobbelanlage, die nicht einen Cent der Baukosten wert ist.  </desc>
  <url>https://skatemap.de/#211</url>
</wpt>
<wpt lat="49.1993" lon="9.50573">
  <name>Öhringen</name>
  <desc>Streetpark   mit einer schönen Bank die eher flacher ist als normal aber</desc>
  <url>https://skatemap.de/#214</url>
</wpt>
<wpt lat="36.6933" lon="-4.44847">
  <name>Malaga Parque Del Oeste</name>
  <desc>Skatepark   mit schöner Miniramp mit Spine,  zwei Hip Quarters und Bank</desc>
  <url>https://skatemap.de/#215</url>
</wpt>
<wpt lat="48.2077" lon="16.3765">
  <name>Karlsplatz</name>
  <desc>Ganz schlechter Skatepark, die Rampen waren sicher vor 10 Jahren nicht der Stand</desc>
  <url>https://skatemap.de/#238</url>
</wpt>
<wpt lat="47.9986" lon="16.2578">
  <name>Baden</name>
  <desc>Outdoor skatepark</desc>
  <url>https://skatemap.de/#236</url>
</wpt>
<wpt lat="48.8935" lon="9.99893">
  <name>Abtsgmünd</name>
  <desc>Quarter, Funbox + Streetbank (hinter der Kochertal-Metropole)</desc>
  <url>https://skatemap.de/#3330</url>
</wpt>
<wpt lat="53.4764" lon="7.47057">
  <name>Aurich</name>
  <desc>Die Skatehalle Aurich ist die größte Indoor-Skatehalle mit einer Fläche von</desc>
  <url>https://skatemap.de/#220</url>
</wpt>
<wpt lat="51.2312" lon="12.7029">
  <name>Grimma</name>
  <desc>In dem wunderschönen kleinen Städtchen Grimma befindet sich ein outdoor</desc>
  <url>https://skatemap.de/#221</url>
</wpt>
<wpt lat="50.337" lon="11.9109">
  <name>Hof</name>
  <desc>Die Skateboardhalle Hof AssHall existiert seit 1995. Doch schon lange vorher gab</desc>
  <url>https://skatemap.de/#222</url>
</wpt>
<wpt lat="53.8659" lon="10.6938">
  <name>Lübeck   Kanalstraße</name>
  <desc>Ca. 1350qm großer Skatepark am Kanal, der geil zu skaten ist, aber man wünscht</desc>
  <url>https://skatemap.de/#224</url>
</wpt>
<wpt lat="52.349" lon="9.66436">
  <name>Hannover Yard-Skatehall</name>
  <desc>Skatehalle mit 2000qm Rampenfläche, 3 verschiedene Streetflächen eine Große</desc>
  <url>https://skatemap.de/#226</url>
</wpt>
<wpt lat="48.1954" lon="16.3531">
  <name>Wien Esterhazypark</name>
  <desc>Der wohl mit Abstand schlechteste Skatepark der Welt, das toppt denke ich alles</desc>
  <url>https://skatemap.de/#239</url>
</wpt>
<wpt lat="48.1721" lon="16.277">
  <name>Wien Lainz</name>
  <desc>curbcut der was taugt, zu schmale quarter, eine bank die wohl als witz gedacht</desc>
  <url>https://skatemap.de/#240</url>
</wpt>
<wpt lat="51.1828" lon="6.24573">
  <name>Mönchengladbach Mülfort</name>
  <desc>Ein Rail und ein Curb, ne kleine Spine,  zwei etwas größere Quarterpipes und</desc>
  <url>https://skatemap.de/#241</url>
</wpt>
<wpt lat="47.2494" lon="13.4473">
  <name>Kleinarl Salzburg Absolut Park Chill House</name>
  <desc>Eine kleine Skatehalle beim Einstieg zum Sessellift. Auf der Piste ist sogar</desc>
  <url>https://skatemap.de/#228</url>
</wpt>
<wpt lat="53.0627" lon="8.84756">
  <name>Bremen Sportgarten</name>
  <desc>Skatespot mit 1000 qm überdachter Minirampenlandschaft und Halfpipe (10,00 m),</desc>
  <url>https://skatemap.de/#243</url>
</wpt>
<wpt lat="49.7367" lon="11.0576">
  <name>Forchheim Nord</name>
  <desc>Ein Paradebeispiel für einen schlechten Skatepark, aber vor allem dafür</desc>
  <url>https://skatemap.de/#231</url>
</wpt>
<wpt lat="51.4671" lon="6.98353">
  <name>Essen Skatehalle Funbox Amalie</name>
  <desc>In der Kulisse der ehemaligen Zeche Amalie findet der Trendsportler alles was</desc>
  <url>https://skatemap.de/#232</url>
</wpt>
<wpt lat="49.4968" lon="11.7539">
  <name>Sulzbach-Rosenberg</name>
  <desc>Miniramp mit guter Breite, Bank, Quarter, Pyra, Funbox, Olliebox und ein paar</desc>
  <url>https://skatemap.de/#234</url>
</wpt>
<wpt lat="53.2258" lon="8.83301">
  <name>Bremen Hbf Skateplaza</name>
  <desc>Seit Mai 2004 betreibt der Sportgarten auf 5.000 qm im Zentrum von Bremen die</desc>
  <url>https://skatemap.de/#244</url>
</wpt>
<wpt lat="49.6326" lon="11.0203">
  <name>Bubenreuth bei Erlangen</name>
  <desc>Neuer CR park. Asphaltplatz, der größer sein könnte. Da wäre theoretisch</desc>
  <url>https://skatemap.de/#247</url>
</wpt>
<wpt lat="52.5624" lon="13.5433">
  <name>Berlin RooF-BMX Halle</name>
  <desc>neben Box, Spine, Transis, Londen Gab, Bank to Bank gibt es auch ein Foampit zu</desc>
  <url>https://skatemap.de/#246</url>
</wpt>
<wpt lat="49.4195" lon="11.2059">
  <name>Fischbach bei Nürnberg</name>
  <desc>3 Rampen (Spine, Bank, Kicker)</desc>
  <url>https://skatemap.de/#249</url>
</wpt>
<wpt lat="49.4035" lon="11.1635">
  <name>Nürnberg Morenbrunn</name>
  <desc>Funbox mit Ledge, Grindkanten aus Edelstahl und viel zu schmal. Alibi Skatebahn.</desc>
  <url>https://skatemap.de/#250</url>
</wpt>
<wpt lat="52.4225" lon="10.7007">
  <name>Wolfsburg LAGA</name>
  <desc>Ein schöner kompakter park von Concrete Rudolph, der alles zu bieten hat was</desc>
  <url>https://skatemap.de/#255</url>
</wpt>
<wpt lat="52.4225" lon="10.8572">
  <name>Wolfsburg Arena</name>
  <desc>Fettes Gelände  mit geilen Obstacles für jedermann für jedes Niveau! Es gibt</desc>
  <url>https://skatemap.de/#256</url>
</wpt>
<wpt lat="39.5829" lon="-0.339203">
  <name>Valencia</name>
  <desc>2004 haben Ricardo und ich uns eine Vertramp gekauft, da uns die Rampe, wo wir</desc>
  <url>https://skatemap.de/#259</url>
</wpt>
<wpt lat="50.5623" lon="10.4109">
  <name>Meiningen</name>
  <desc>Quarter,Funbox  und 2 beton curbs...sieht alles ein bisschen komisch aus^^</desc>
  <url>https://skatemap.de/#266</url>
</wpt>
<wpt lat="49.4583" lon="10.9988">
  <name>Fürth Südstadtpark</name>
  <desc>Quarterpipe,150cm hoch, viel zu schmal und zu großer Radius. Blauer Wobbel mit</desc>
  <url>https://skatemap.de/#267</url>
</wpt>
<wpt lat="50.4177" lon="10.9026">
  <name>Eisfeld Halle 53</name>
  <desc>In unserer Halle wird dem anspruchsvollen Skater, BMXer und Inliner auf 1000 m²</desc>
  <url>https://skatemap.de/#281</url>
</wpt>
<wpt lat="40.3465" lon="-8.5944">
  <name>Cantanhede</name>
  <desc>Skatepark of Cantanhede. street skatepark, obstacles are low, street oriented,</desc>
  <url>https://skatemap.de/#285</url>
</wpt>
<wpt lat="49.4875" lon="10.7816">
  <name>Langenzenn</name>
  <desc>Was soll man da sagen, schlechter kann ein Skatepark kaum sein. Die Quarter ist</desc>
  <url>https://skatemap.de/#288</url>
</wpt>
<wpt lat="49.2131" lon="7.03187">
  <name>Brebach</name>
  <desc>ziemlich schlechter Boden. zwei quarters, eine funbox mit transition, wheelie</desc>
  <url>https://skatemap.de/#290</url>
</wpt>
<wpt lat="49.1533" lon="7.03093">
  <name>Grosbliderstroff</name>
  <desc>eine quarter, geiler bodenbelag, eine funbox , zwei flatrails und ein curb</desc>
  <url>https://skatemap.de/#291</url>
</wpt>
<wpt lat="51.3909" lon="8.54981">
  <name>Brilon</name>
  <desc>20x30m große Streetfläche  Street-Obstacles: Pyramide mit breiter Ledge und</desc>
  <url>https://skatemap.de/#294</url>
</wpt>
<wpt lat="50.9374" lon="7.00419">
  <name>Köln - Snipes Halle 59</name>
  <desc>skatehalle in Köln </desc>
  <url>https://skatemap.de/#301</url>
</wpt>
<wpt lat="51.9421" lon="7.6282">
  <name>Münster Skaters Palace</name>
  <desc>Unsere Skate Halle in Münster, bietet viele verschiedene Möglichkeiten seine</desc>
  <url>https://skatemap.de/#306</url>
</wpt>
<wpt lat="47.6285" lon="10.5035">
  <name>Nesselwang</name>
  <desc>Miniramp + Bank/Quarter</desc>
  <url>https://skatemap.de/#2184</url>
</wpt>
<wpt lat="49.7008" lon="7.32792">
  <name>Idar-Oberstein, Skatehalle Hohl</name>
  <desc>1x Große FunBox , 1x Quarder , 1x Kicker , 1x Rail und noch vieles mehr....!</desc>
  <url>https://skatemap.de/#2183</url>
</wpt>
<wpt lat="48.0377" lon="14.4209">
  <name>Steyr Skatehalle</name>
  <desc>Der Skatepark in der Eishalle!! Fette Holzpyramide, Banks, Quaters und mehrere</desc>
  <url>https://skatemap.de/#314</url>
</wpt>
<wpt lat="50.1682" lon="11.1178">
  <name>Michelau</name>
  <desc>Skatepark mit Betonrampen.</desc>
  <url>https://skatemap.de/#311</url>
</wpt>
<wpt lat="50.1019" lon="8.66577">
  <name>Frankfurt a. M. - Friedensbrücke</name>
  <desc>Cooler Skateboard wie Bmx Park. Zwei quarter pipes, einer Funbox mit</desc>
  <url>https://skatemap.de/#319</url>
</wpt>
<wpt lat="53.0378" lon="8.81488">
  <name>Bremen Funpark</name>
  <desc>- 20.000 qm Fläche - riesiges Skate - Areal mit Rampen und Funboxes - 4.000</desc>
  <url>https://skatemap.de/#326</url>
</wpt>
<wpt lat="49.6587" lon="10.0717">
  <name>Ochsenfurt Ditch</name>
  <desc>wohl ein wasserauffangbecken oder sowas in der art, kann man bissl spaß dran</desc>
  <url>https://skatemap.de/#341</url>
</wpt>
<wpt lat="50.0448" lon="10.2389">
  <name>Schweinfurt Brückenskatepark</name>
  <desc>Brandneuer Skatepark in Schweinfurt, Eröffnung ist glaube ich am 26.Mai.</desc>
  <url>https://skatemap.de/#344</url>
</wpt>
<wpt lat="47.1588" lon="15.7206">
  <name>Prebuch</name>
  <desc>Dieser Skatepark beinhaltet zwei Quarterpipes in unterschiedlichen Höhen,</desc>
  <url>https://skatemap.de/#345</url>
</wpt>
<wpt lat="45.5171" lon="10.2206">
  <name>Brescia Betonpark</name>
  <desc>UPDATE: ich war dieses Jahr wieder dort, anfang Juni '07. Der Park war noch</desc>
  <url>https://skatemap.de/#378</url>
</wpt>
<wpt lat="48.2783" lon="12.1489">
  <name>Dorfen Downhill Deathpark</name>
  <desc>Schwierigster und aussergewöhnlichster skatepark in bayern! Mucho extremo.</desc>
  <url>https://skatemap.de/#347</url>
</wpt>
<wpt lat="47.5961" lon="7.59593">
  <name>Weil a.R. Carhartt Halle</name>
  <desc>http://www.carhartt-skatepark.de/</desc>
  <url>https://skatemap.de/#349</url>
</wpt>
<wpt lat="48.8769" lon="9.3568">
  <name>Schwaikheim</name>
  <desc>Kleine aber fein mit ner Quater ne funbox und ne Railbox! Sozusagen mein 2tes</desc>
  <url>https://skatemap.de/#354</url>
</wpt>
<wpt lat="51.344" lon="7.42211">
  <name>Hagen Haspe-Pool</name>
  <desc>Auf einer ziemlich grossen Fläche befinden sich Standard Beton Rampen (s.</desc>
  <url>https://skatemap.de/#357</url>
</wpt>
<wpt lat="51.2724" lon="8.87563">
  <name>Korbach</name>
  <desc>lokaler Skatepark mit Halfminipipe. Ja sowas gibst. 2 m hoch und senkrecht. Ist</desc>
  <url>https://skatemap.de/#359</url>
</wpt>
<wpt lat="48.1783" lon="11.5544">
  <name>München Stonepark</name>
  <desc>Kleiner aber feiner Skatepark,bestehend aus einem Curb,einer Rail,einer Spine</desc>
  <url>https://skatemap.de/#363</url>
</wpt>
<wpt lat="50.1412" lon="8.6415">
  <name>Frankfurt a. Main Niddapark</name>
  <desc>ein gemütlicher kleiner Park mit einen minibowl, 4tel bowl zwei quarters zum</desc>
  <url>https://skatemap.de/#369</url>
</wpt>
<wpt lat="45.6021" lon="10.5148">
  <name>Salo</name>
  <desc>Klassischer Holzrampenpark. Sehr guter Betonboden. Die Rampen, naja, der Zustand</desc>
  <url>https://skatemap.de/#500</url>
</wpt>
<wpt lat="47.4747" lon="8.49526">
  <name>Niederhasli</name>
  <desc>Kleiner aber feiner Park beim Schulhaus Hasliberg. perfekte Mini,  Bank mit</desc>
  <url>https://skatemap.de/#373</url>
</wpt>
<wpt lat="47.5721" lon="7.59975">
  <name>Basel Blackcrossbowl</name>
  <desc>Skaterbuilt Concrete Bowl, ziemlich eng und brachial,</desc>
  <url>https://skatemap.de/#374</url>
</wpt>
<wpt lat="45.4932" lon="9.24628">
  <name>Mailand Bowl-ParcoLambro</name>
  <desc>BetonBowl vom ConreteRudolph, ca. 2002 gebaut. Nette Schüssel, die wohl eher ne</desc>
  <url>https://skatemap.de/#379</url>
</wpt>
<wpt lat="48.4028" lon="11.7578">
  <name>Freising</name>
  <desc>Park mit Quater, Funbox, Olliebox, Flatrail, Banks und ner Miniramp. Für mehr</desc>
  <url>https://skatemap.de/#383</url>
</wpt>
<wpt lat="48.4" lon="11.8872">
  <name>Freising Halle</name>
  <desc>Skatehalle mit Funbox, Olliebox, Bank und Quater sowie ner kleinen aber feinen</desc>
  <url>https://skatemap.de/#384</url>
</wpt>
<wpt lat="48.4336" lon="11.6081">
  <name>Allershausen</name>
  <desc>Schöner IOU Park mit Funbox, Olliebox in 2 verschiedenen Höhen, Flatrail und</desc>
  <url>https://skatemap.de/#385</url>
</wpt>
<wpt lat="48.3241" lon="11.6717">
  <name>Neufahrn</name>
  <desc>Kleiner Park mit Funbox, Quater und ner flachen Bank, sowie ner Finlek Minirampe</desc>
  <url>https://skatemap.de/#386</url>
</wpt>
<wpt lat="48.1629" lon="11.7456">
  <name>Kirchheim</name>
  <desc>Großer Park mit Funbox, diversen Quaters, Ollieboxen, ner Betonhip und ner</desc>
  <url>https://skatemap.de/#387</url>
</wpt>
<wpt lat="48.5302" lon="12.1346">
  <name>Landshut</name>
  <desc>Schöner Park mit Funbox, Olliebox und betonierten Schrägen. Minirampe ist auch</desc>
  <url>https://skatemap.de/#388</url>
</wpt>
<wpt lat="48.3517" lon="11.568">
  <name>Fahrenzhausen</name>
  <desc>Kleiner Park mit Funbox, Olliebox und ner Pyra. </desc>
  <url>https://skatemap.de/#389</url>
</wpt>
<wpt lat="48.2631" lon="11.6702">
  <name>Lohhof</name>
  <desc>Kleiner Park mit Funbox, Quater, ner Bank und nem Rail</desc>
  <url>https://skatemap.de/#391</url>
</wpt>
<wpt lat="52.5287" lon="13.4321">
  <name>Berlin Spinemini im Volkspark Friedrichshain</name>
  <desc>ca. 1,80m hohe Spine mini. Zusätzlich ist noch ne ca. 2m mini im 90 Grad Winkel</desc>
  <url>https://skatemap.de/#392</url>
</wpt>
<wpt lat="48.6276" lon="9.25809">
  <name>Grötzingen</name>
  <desc>1 große Rampe, 1 kleine Quater, Box und viele Rails.</desc>
  <url>https://skatemap.de/#397</url>
</wpt>
<wpt lat="49.4053" lon="7.15957">
  <name>Ottweiler</name>
  <desc>\&quot;alder was issen das für e Park\&quot; tja dann kann ich nur sagen, bitte sieben</desc>
  <url>https://skatemap.de/#403</url>
</wpt>
<wpt lat="48.0745" lon="11.645">
  <name>Neubiberg</name>
  <desc>Eine kleine ganz lustige Miniramp,2 Funboxen die sich gegenüberstehen auf denen</desc>
  <url>https://skatemap.de/#408</url>
</wpt>
<wpt lat="51.6215" lon="8.34206">
  <name>Erwitte</name>
  <desc>Der Sk8park verfügt über eine ca. 400 Quadratmeter große Rollfläche, bebaut</desc>
  <url>https://skatemap.de/#418</url>
</wpt>
<wpt lat="54.806" lon="9.39328">
  <name>Flensburg Harrislee</name>
  <desc>optimal </desc>
  <url>https://skatemap.de/#419</url>
</wpt>
<wpt lat="52.1689" lon="4.99466">
  <name>Breukelen</name>
  <desc>Der Park ist aus Metall gebaut lässt sich aber ganz gut fahrn der Boden ist aus</desc>
  <url>https://skatemap.de/#421</url>
</wpt>
<wpt lat="52.4814" lon="13.3108">
  <name>Berlin Heidelberger Platz</name>
  <desc>Einer von Berlins Regen-Spots. Hier kann man fahren auch wenns stürmt und</desc>
  <url>https://skatemap.de/#426</url>
</wpt>
<wpt lat="52.942" lon="8.82284">
  <name>Barrien</name>
  <desc>Eine Funbox und eine Quarter... Klein, aber nicht schlecht.</desc>
  <url>https://skatemap.de/#430</url>
</wpt>
<wpt lat="49.4869" lon="8.52951">
  <name>Mannheim Feudenheim</name>
  <desc>Es gibt eine Vielzahl von Obstacles, einige Quaterpipes, eine große Funbox in</desc>
  <url>https://skatemap.de/#431</url>
</wpt>
<wpt lat="49.4632" lon="8.5532">
  <name>Mannheim Seckenheim</name>
  <desc>Auf der Skateanlage sind eine Pyramide, ein Spine, ein Table, eine Funbox und</desc>
  <url>https://skatemap.de/#433</url>
</wpt>
<wpt lat="49.4986" lon="8.52166">
  <name>Mannheim Käfertal</name>
  <desc>Kleiner Park mit einigen Elementen für Sprünge und einige für Grinds.</desc>
  <url>https://skatemap.de/#439</url>
</wpt>
<wpt lat="45.5069" lon="9.17311">
  <name>Mailand Skatehalle</name>
  <desc>Neue Skatehalle in Mailand, die Eröffnung war Frühjahr 2007. Schöne breite</desc>
  <url>https://skatemap.de/#452</url>
</wpt>
<wpt lat="45.4532" lon="11.0066">
  <name>Verona</name>
  <desc>Neuer Skatepark von IOU-Ramps.com aus Passau. Standardpark vom layout zwar, aber</desc>
  <url>https://skatemap.de/#453</url>
</wpt>
<wpt lat="48.942" lon="9.18783">
  <name>Freiberg am Neckar</name>
  <desc>Der Skatepark besteht aus...  - einer Quarterpipe (ca. 2m) - Funbox (mit</desc>
  <url>https://skatemap.de/#457</url>
</wpt>
<wpt lat="48.5478" lon="12.5177">
  <name>Frontenhausen</name>
  <desc>Miniramp,3 Tables , eine Rail ,eine Funbox ,große Quarterpipe , kleine</desc>
  <url>https://skatemap.de/#459</url>
</wpt>
<wpt lat="54.0869" lon="12.1308">
  <name>Rostock  AugustBebel Park</name>
  <desc>Bester Park in Rostock, Grindbox (2stufig), Funbox, Miniramp mit Spine und</desc>
  <url>https://skatemap.de/#461</url>
</wpt>
<wpt lat="55.8683" lon="-4.28432">
  <name>Glasgow Kelvingrove</name>
  <desc>Fetter Betonpark.</desc>
  <url>https://skatemap.de/#496</url>
</wpt>
<wpt lat="55.6958" lon="12.5304">
  <name>Kopenhagen X-Hall Skatehalle</name>
  <desc>3 Big bowls....Wonderfull</desc>
  <url>https://skatemap.de/#482</url>
</wpt>
<wpt lat="48.7416" lon="9.16309">
  <name>Stuttgart Degerloch</name>
  <desc>Skatepark: ein Eck Radius Curb, eine Grindbox, 2 Quarters und ne Startramp, 2</desc>
  <url>https://skatemap.de/#498</url>
</wpt>
<wpt lat="49.0204" lon="8.35444">
  <name>Karlsruhe Skatehalle Rollbrett e.V</name>
  <desc>Skatehalle mit Holzrampen auf Betonboden. Minirampe mit 1,50 m und 1,80m Höhe.</desc>
  <url>https://skatemap.de/#763</url>
</wpt>
<wpt lat="52.5024" lon="13.4838">
  <name>Berlin Nölnerplatz</name>
  <desc>Kleiner Beton Skatepark, alles recht klein. Macht spass, halt nicht sehr lang...</desc>
  <url>https://skatemap.de/#761</url>
</wpt>
<wpt lat="56.1463" lon="8.94141">
  <name>Herning</name>
  <desc>Skatepark mit miniramp und streetarea .  See www.herningskate.dk </desc>
  <url>https://skatemap.de/#764</url>
</wpt>
<wpt lat="49.4697" lon="8.46668">
  <name>Mannheim Halfpipe Lindenhof</name>
  <desc>Hier gibt es eine ca. 3m hohe Halfpipe.</desc>
  <url>https://skatemap.de/#767</url>
</wpt>
<wpt lat="52.522" lon="13.169">
  <name>Berlin Spandau</name>
  <desc>Erstklassiger Park, mehr kann ich eigenlich nicht dazu sagen...  Auf der</desc>
  <url>https://skatemap.de/#769</url>
</wpt>
<wpt lat="54.0787" lon="13.3841">
  <name>Greifswald</name>
  <desc>Hier ein paar Fotos. Auf jedenfall cooler SkatePark.</desc>
  <url>https://skatemap.de/#774</url>
</wpt>
<wpt lat="49.0307" lon="8.33448">
  <name>Karlsruhe Knielingen</name>
  <desc>Kleiner öffentlicher Park mit 1 Quarter und einer Funbox. Wer Gute Rollen</desc>
  <url>https://skatemap.de/#775</url>
</wpt>
<wpt lat="49.4403" lon="11.056">
  <name>Nürnberg Bowl am Pferdemarkt</name>
  <desc>Was lange währt wird endlich gut? Tja, nicht ganz, für die lange Wartezeit</desc>
  <url>https://skatemap.de/#776</url>
</wpt>
<wpt lat="50.7738" lon="6.11971">
  <name>Aachen</name>
  <desc>Neuer Skatepark vom ConcreteRudolph. Schönes Teil mitten im Stadtpark. Viele</desc>
  <url>https://skatemap.de/#782</url>
</wpt>
<wpt lat="51.2438" lon="5.30745">
  <name>Lommel</name>
  <desc>Lommel Skatepark in Belgien          Gebaut von CR, Fertiggestellt glaube ich</desc>
  <url>https://skatemap.de/#783</url>
</wpt>
<wpt lat="52.7307" lon="7.75676">
  <name>Löningen</name>
  <desc>Quarterpipe,Bank,Funbox, 6.5m rail</desc>
  <url>https://skatemap.de/#789</url>
</wpt>
<wpt lat="51.424" lon="5.44575">
  <name>Eindhoven Outdoor Betonpark</name>
  <desc>Neuer CR Betonpark in Eindhoven. Komplett aus Beton, gut verarbeitet, alles</desc>
  <url>https://skatemap.de/#787</url>
</wpt>
<wpt lat="48.09" lon="16.3174">
  <name>Wiener Neudorf</name>
  <desc>Sehr coole Anlage: 2000qm - Miniramp (b=10m), Banklandschaft mit Rails und</desc>
  <url>https://skatemap.de/#790</url>
</wpt>
<wpt lat="50.4938" lon="12.1432">
  <name>Plauen</name>
  <desc>In Plauen gibt's ja schon einen kleineren alten Pool und eine Skatehalle</desc>
  <url>https://skatemap.de/#791</url>
</wpt>
<wpt lat="48.8307" lon="9.32181">
  <name>Waiblingen</name>
  <desc>Kleine/Große Quaderpipe Kleine/Große</desc>
  <url>https://skatemap.de/#794</url>
</wpt>
<wpt lat="47.1088" lon="9.06463">
  <name>Glarnerland Massiv Skatepark</name>
  <desc>1600m2 Betonpark mit Pool, Streetpark, China-Bank, London Gap, 2-flat-2 Treppe</desc>
  <url>https://skatemap.de/#795</url>
</wpt>
<wpt lat="50.0759" lon="7.62691">
  <name>Wiebelsheim</name>
  <desc>Kleiner lustiger Skatepark in nem 500 SeelenDorf. Es gibt auf dem Park 2 curbs,</desc>
  <url>https://skatemap.de/#797</url>
</wpt>
<wpt lat="46.4681" lon="-1.61568">
  <name>Talmont Saint-Hilaire</name>
  <desc>kleiner Park mit einem Kicker, einer Rail, einem Table,einer Flatbank und einer</desc>
  <url>https://skatemap.de/#798</url>
</wpt>
<wpt lat="46.3754" lon="-1.3884">
  <name>Jard-sur-Mer</name>
  <desc>Kleiner Park mit drei verschiebbaren Kickern, Flatrail und zwei Elementen mit</desc>
  <url>https://skatemap.de/#799</url>
</wpt>
<wpt lat="44.3895" lon="12.2155">
  <name>Ravenna Bowl</name>
  <desc>Kleiner spaßiger Bowl aus Beton, am Rande von Ravenna. Von der Form her</desc>
  <url>https://skatemap.de/#800</url>
</wpt>
<wpt lat="47.4954" lon="12.0574">
  <name>Wörgl</name>
  <desc>Update zu dem Wörgl Skatepark, den es schon länger gibt, checkt dazu mal</desc>
  <url>https://skatemap.de/#801</url>
</wpt>
<wpt lat="49.9579" lon="11.5962">
  <name>Bayreuth Skatehalle</name>
  <desc>schöne Halle mit feinstem Holzboden.Kleine flache Miniramp mit Wallride,</desc>
  <url>https://skatemap.de/#805</url>
</wpt>
<wpt lat="55.6756" lon="12.5869">
  <name>Copenhagen Wonderland</name>
  <desc>The crazy wood-bowl made by www.alis.dk in the late 90\'s! Come chek it out..</desc>
  <url>https://skatemap.de/#808</url>
</wpt>
<wpt lat="52.6019" lon="13.494">
  <name>Berlin Karow</name>
  <desc>Drei Kicker mit ca. 50 cm Höhe. Dann noch ein paar zersörte Holzbänke als</desc>
  <url>https://skatemap.de/#810</url>
</wpt>
<wpt lat="47.1657" lon="7.79978">
  <name>Madiswil Skatehalle</name>
  <desc>Skatehalle  www.skate-in.ch</desc>
  <url>https://skatemap.de/#811</url>
</wpt>
<wpt lat="51.2976" lon="13.264">
  <name>Riesa</name>
  <desc>Gesamtfläche: über 2000 qm Eintritt: 2,00 Euro pro</desc>
  <url>https://skatemap.de/#812</url>
</wpt>
<wpt lat="51.8945" lon="10.5294">
  <name>Bad Harzburg</name>
  <desc>Eine sehr gut zu fahrende Miniramp.  eine Bank, eine Quarter und ein ca. 2,5m</desc>
  <url>https://skatemap.de/#817</url>
</wpt>
<wpt lat="53.615" lon="10.3929">
  <name>Trittau</name>
  <desc>Skatepark mit Quarterpipe, Bank, Funbox mit Ledge und Curb, Rail und Olliebox</desc>
  <url>https://skatemap.de/#821</url>
</wpt>
<wpt lat="52.5212" lon="7.31231">
  <name>Lingen Konrad Adenauerplatz</name>
  <desc>Quarterpipe, Curb, Rail, Bank und Funbox mit Ledge, Rail und Curb</desc>
  <url>https://skatemap.de/#822</url>
</wpt>
<wpt lat="53.5838" lon="8.61364">
  <name>Bremerhaven Snakerun</name>
  <desc>Snakerun mit sehr merkwürdiger Transition und ner Miniramp.</desc>
  <url>https://skatemap.de/#824</url>
</wpt>
<wpt lat="49.662" lon="8.00165">
  <name>Kirchheimbolanden</name>
  <desc>Miniramp mit Bank, Pyra mit Ledge, Quarterpipe, Rail und Curb</desc>
  <url>https://skatemap.de/#825</url>
</wpt>
<wpt lat="48.9516" lon="10.9109">
  <name>Treuchtlingen</name>
  <desc>Skatepark mit Smoothen Betonflat. Rollt wunderbar. Quarterpipe, Bank, Pyramide</desc>
  <url>https://skatemap.de/#826</url>
</wpt>
<wpt lat="54.4119" lon="11.205">
  <name>Burg auf Fehmarn</name>
  <desc>Coole Minirampe, ca. 150-200cm hoch.</desc>
  <url>https://skatemap.de/#827</url>
</wpt>
<wpt lat="49.8295" lon="9.86966">
  <name>Würzburg Veitshöchheim</name>
  <desc>1 bank,1 miniramp ,1 quarter ,1 funbox pyramide mit ledge und rail , zwei curbs.</desc>
  <url>https://skatemap.de/#830</url>
</wpt>
<wpt lat="52.9648" lon="7.32136">
  <name>Dörpen</name>
  <desc>Outdoor-Skatepark</desc>
  <url>https://skatemap.de/#833</url>
</wpt>
<wpt lat="49.6385" lon="8.35833">
  <name>Worms</name>
  <desc>Quarterpipe, Funbox, Bank, Curb's, Rail</desc>
  <url>https://skatemap.de/#834</url>
</wpt>
<wpt lat="50.7333" lon="-1.76652">
  <name>Christchurch</name>
  <desc>der skatepark ist aus holz gebaut.  man kann bis in die nacht fahren ,weil  der</desc>
  <url>https://skatemap.de/#838</url>
</wpt>
<wpt lat="53.0464" lon="8.62245">
  <name>Delmenhorst</name>
  <desc>Dieser Park besitzt eine jumpbox, curbs, rails, quater ramps, banks, eine</desc>
  <url>https://skatemap.de/#840</url>
</wpt>
<wpt lat="51.2052" lon="10.4453">
  <name>Mühlhausen Skatehalle</name>
  <desc>Bei unserem indoor - Park handelt es sich um den Titus Meisterschaftspark vom</desc>
  <url>https://skatemap.de/#842</url>
</wpt>
<wpt lat="51.2988" lon="11.8156">
  <name>Mücheln</name>
  <desc>...ein ruhig gelegener Skatepark neben einen Fußballplatz. Es sind kaum Skater</desc>
  <url>https://skatemap.de/#843</url>
</wpt>
<wpt lat="43.2876" lon="-2.16946">
  <name>Zarautz</name>
  <desc>Joah, is ne nette kleine ecke direkt am strand auffer promenade... Leider sind</desc>
  <url>https://skatemap.de/#846</url>
</wpt>
<wpt lat="59.2656" lon="18.1362">
  <name>Stockholm Brotherhood Plaza</name>
  <desc>Brotherhood Plaza is park project in Sweden. The park is about 43000 square feet</desc>
  <url>https://skatemap.de/#849</url>
</wpt>
<wpt lat="49.324" lon="11.0342">
  <name>Schwabach Skatepark</name>
  <desc>Ja was kann man zu diesem Skatepark groß sagen: Die Rampen bestehen aus</desc>
  <url>https://skatemap.de/#852</url>
</wpt>
<wpt lat="28.486" lon="-16.3905">
  <name>Teneriffa Tacoronte</name>
  <desc>Steile schmale Miniramp, 2 Funboxen, Rail und Spineramp. </desc>
  <url>https://skatemap.de/#853</url>
</wpt>
<wpt lat="47.8777" lon="10.6245">
  <name>Kaufbeuren</name>
  <desc>Kleiner Skatepark mit einer Spine,Funbox(bestehent aus 2</desc>
  <url>https://skatemap.de/#854</url>
</wpt>
<wpt lat="51.4829" lon="6.78612">
  <name>Duisburg Landschaftspark Nord</name>
  <desc>Klein aber fein Minirampe(beton), pool(blechwanne,überdacht) funbox, lage,</desc>
  <url>https://skatemap.de/#857</url>
</wpt>
<wpt lat="52.3917" lon="13.4043">
  <name>Berlin Lichtenrade</name>
  <desc>Neuerer Skatepark vom CR, ich glaube anfang 2007 gebaut. Betonfertigteile auf</desc>
  <url>https://skatemap.de/#858</url>
</wpt>
<wpt lat="48.1306" lon="11.6537">
  <name>München Trudering</name>
  <desc>Betonpark vom Bowl.ch, fertig gestellt im Sommer 2007. Super Skatepark! Schaut</desc>
  <url>https://skatemap.de/#859</url>
</wpt>
<wpt lat="48.2067" lon="11.5288">
  <name>München Keyhole</name>
  <desc>The Keyhole Skatepark! Gebaut von bowl.ch, in Zusammenarbeit(Ideen, Design) mit</desc>
  <url>https://skatemap.de/#860</url>
</wpt>
<wpt lat="28.6584" lon="-17.8626">
  <name>La Palma El  Paso</name>
  <desc>Netter Skatepark an einem Platz mit 200 Sonnentagen! Das Center Obstacle, die</desc>
  <url>https://skatemap.de/#865</url>
</wpt>
<wpt lat="48.269" lon="10.7999">
  <name>Augsburg Boingen-Siedlung</name>
  <desc>Cooler kleiner Skatepark!! mit kleiner Quarter , fun box , beton Box , und rail</desc>
  <url>https://skatemap.de/#863</url>
</wpt>
<wpt lat="48.709" lon="9.15076">
  <name>Stuttgart Fasanenhof spot</name>
  <desc>Skatepark der hoffentlich bald renoviert wird..   Ca 2.5 m Miniramp Curbs und</desc>
  <url>https://skatemap.de/#866</url>
</wpt>
<wpt lat="48.8111" lon="9.21144">
  <name>Bad Cannstatt Altenburger Steige</name>
  <desc>HI,   ich präsentiere euch hier den im Sommer 06 (glaub ich) neu gebauten</desc>
  <url>https://skatemap.de/#867</url>
</wpt>
<wpt lat="51.1235" lon="6.41302">
  <name>Moenchengladbach Wickrath</name>
  <desc>Kleiner Streetpark, eine hüfthohe quarter und eine hüfthohe bank, dazwischen</desc>
  <url>https://skatemap.de/#869</url>
</wpt>
<wpt lat="50.1854" lon="8.58529">
  <name>Stierstadt</name>
  <desc>Miniramp, Bank,Quarterpipe,Funbox,Rails,Olliebox</desc>
  <url>https://skatemap.de/#870</url>
</wpt>
<wpt lat="53.5623" lon="9.96107">
  <name>Hamburg Flora</name>
  <desc>im frühjahr entstand hier im hamburger Schanzenviertel im Hinterhof der Roten</desc>
  <url>https://skatemap.de/#871</url>
</wpt>
<wpt lat="48.0427" lon="7.58297">
  <name>Breisach</name>
  <desc>Eine recht große Halfpipe, nahe eines Billard-Ladens mit Bowlinganlage, essen,</desc>
  <url>https://skatemap.de/#873</url>
</wpt>
<wpt lat="46.8843" lon="8.24608">
  <name>Obwalden</name>
  <desc>Skatepark mit Street und Bowl. Etwa 1100 Quadratmeter. Eröffnung im Juni 2008.</desc>
  <url>https://skatemap.de/#874</url>
</wpt>
<wpt lat="48.2341" lon="11.4651">
  <name>Karlsfeld</name>
  <desc>Pipe mit Bowl, 2 Halfpipe und 2 Kicker</desc>
  <url>https://skatemap.de/#875</url>
</wpt>
<wpt lat="49.8143" lon="9.87328">
  <name>Margetshöchheim</name>
  <desc>Er wird angeblich erneuert (das hoffe ich auch)</desc>
  <url>https://skatemap.de/#877</url>
</wpt>
<wpt lat="48.1798" lon="11.4595">
  <name>Allach Untermenzing</name>
  <desc>Kleiner Park mit ein paar Quarterpipes...</desc>
  <url>https://skatemap.de/#879</url>
</wpt>
<wpt lat="48.9614" lon="10.1259">
  <name>Ellwangen</name>
  <desc>quarter ( ca. 1,50m hoch), funbox, bank, flatrail (ca 30 cm hoch), curb</desc>
  <url>https://skatemap.de/#880</url>
</wpt>
<wpt lat="51.9083" lon="4.5119">
  <name>Rotterdam Skateland</name>
  <desc>indoor Skatepark. The park is also available for Skateboarders and at Thursday</desc>
  <url>https://skatemap.de/#881</url>
</wpt>
<wpt lat="48.0404" lon="10.72">
  <name>Buchloe</name>
  <desc>Funbox, handrail, london gap mit Roll in, quarters, curb, ledges, flatrail,</desc>
  <url>https://skatemap.de/#884</url>
</wpt>
<wpt lat="50.9876" lon="6.94924">
  <name>Köln North Brigade</name>
  <desc>Riesiger Outdoorskatepark im Kölner Norden. </desc>
  <url>https://skatemap.de/#885</url>
</wpt>
<wpt lat="50.2174" lon="11.9374">
  <name>Schwarzenbach an der Saale Indoor Pool</name>
  <desc>Der Martin Ehrenberger von Blackriver-ramps.com, die Firma mit den Fingerboards</desc>
  <url>https://skatemap.de/#887</url>
</wpt>
<wpt lat="49.6158" lon="12.338">
  <name>Vohenstrauß</name>
  <desc>kleiner Skatepark aus Beton, nachts beleuchtet</desc>
  <url>https://skatemap.de/#888</url>
</wpt>
<wpt lat="48.6504" lon="9.36048">
  <name>Oberboihingen</name>
  <desc>Quarter, Funbox + ManualPad mit Stufe (bei der Feuerwehr)</desc>
  <url>https://skatemap.de/#3323</url>
</wpt>
<wpt lat="48.0223" lon="12.5454">
  <name>Trostberg</name>
  <desc>2 x Funbox, 2 x Ramp, Quater, 2 x Curb, Rails</desc>
  <url>https://skatemap.de/#3341</url>
</wpt>
<wpt lat="56.5012" lon="20.9961">
  <name>Latvija</name>
  <desc></desc>
  <url>https://skatemap.de/#3310</url>
</wpt>
<wpt lat="49.9682" lon="9.16534">
  <name>Aschaffenburg Streetspot</name>
  <desc>Handrails an der ehm. Kaserne (würzburgerstr.) 3 Lowrails am Baumarkt</desc>
  <url>https://skatemap.de/#892</url>
</wpt>
<wpt lat="48.9428" lon="9.25351">
  <name>Neckarbahn</name>
  <desc>Ganz gut...</desc>
  <url>https://skatemap.de/#894</url>
</wpt>
<wpt lat="49.5038" lon="11.2809">
  <name>Lauf Bertleinschule(Streetspot)</name>
  <desc>Sehr schönes Handrail sowie einige Meter entfernt eine Ledge,der es allerdings</desc>
  <url>https://skatemap.de/#895</url>
</wpt>
<wpt lat="48.8289" lon="10.0678">
  <name>Hofherrnweiler</name>
  <desc>Kleiner beton Skatepark mit Quarter, Ollibox, Pyra mit Ledge und Bank. Die</desc>
  <url>https://skatemap.de/#899</url>
</wpt>
<wpt lat="49.4464" lon="10.4547">
  <name>Obernzenn</name>
  <desc>ein kleiner Skatepark mit miniramp,ollie box, funbox, Rail (abgerundet), Ramp</desc>
  <url>https://skatemap.de/#897</url>
</wpt>
<wpt lat="50.4019" lon="8.67245">
  <name>Ostheim</name>
  <desc>Bank - Funbox - Quarterpipe            Rail</desc>
  <url>https://skatemap.de/#898</url>
</wpt>
<wpt lat="51.3561" lon="6.15668">
  <name>Venlo Skatehalle Blender</name>
  <desc>Eine Sehr sehr geile Skatehalle leicht ausserhalb von Venlo... Viel</desc>
  <url>https://skatemap.de/#900</url>
</wpt>
<wpt lat="51.1754" lon="7.08475">
  <name>Solingen Skatehalle Rollhaus</name>
  <desc>Ein altes Kino, dass zur Skatehalle umgebaut wurde... immer schön beheizt und</desc>
  <url>https://skatemap.de/#901</url>
</wpt>
<wpt lat="48.2403" lon="16.4103">
  <name>Wien Donaupark</name>
  <desc>Wien </desc>
  <url>https://skatemap.de/#902</url>
</wpt>
<wpt lat="48.1734" lon="16.4026">
  <name>Wien Haydnpark</name>
  <desc></desc>
  <url>https://skatemap.de/#904</url>
</wpt>
<wpt lat="48.327" lon="16.2598">
  <name>Höflein an der Donau</name>
  <desc></desc>
  <url>https://skatemap.de/#905</url>
</wpt>
<wpt lat="48.1869" lon="16.3369">
  <name>Wien Längenfeldgasse</name>
  <desc>Miniramp und andere Obstacle, alles in einer Linie angeordnet.</desc>
  <url>https://skatemap.de/#906</url>
</wpt>
<wpt lat="47.4875" lon="13.8428">
  <name>Radstadt</name>
  <desc></desc>
  <url>https://skatemap.de/#907</url>
</wpt>
<wpt lat="48.1074" lon="16.3916">
  <name>Wien Stadtpark</name>
  <desc></desc>
  <url>https://skatemap.de/#908</url>
</wpt>
<wpt lat="48.3847" lon="16.2061">
  <name>Stockerau</name>
  <desc>Miniramp, Quarterpipe, Rail</desc>
  <url>https://skatemap.de/#909</url>
</wpt>
<wpt lat="48.3708" lon="16.3916">
  <name>Tulln</name>
  <desc>minirampe, scheiss betonrampen die in der wiese stehen.</desc>
  <url>https://skatemap.de/#910</url>
</wpt>
<wpt lat="51.1001" lon="6.15234">
  <name>Wassenberg Skatepark</name>
  <desc>Kleiner recht neuer Skatepark. Nichts so besonderes dennoch besser als nichts ;)</desc>
  <url>https://skatemap.de/#914</url>
</wpt>
<wpt lat="55.9246" lon="37.6172">
  <name>Chimki Kurkino</name>
  <desc>Der erste russische Skatepark auf Skatemap! </desc>
  <url>https://skatemap.de/#913</url>
</wpt>
<wpt lat="50.0681" lon="10.1653">
  <name>Oberwerrn</name>
  <desc>Kleiner Streifen mit Quarter, Flatrail und Funbox mit 3er Stufen. Die Rampen</desc>
  <url>https://skatemap.de/#918</url>
</wpt>
<wpt lat="52.1348" lon="9.94743">
  <name>Hildesheim</name>
  <desc>skatepark in hildesheim in der nähe vom honsensee!sorry das bil is nicht sehr</desc>
  <url>https://skatemap.de/#919</url>
</wpt>
<wpt lat="48.2004" lon="16.2556">
  <name>Wien Hütteldorf</name>
  <desc>Neuer 4000 qm Skatepark mit riesiger Bowllandschaft und kleiner Streetfläche</desc>
  <url>https://skatemap.de/#920</url>
</wpt>
<wpt lat="54.8018" lon="9.42697">
  <name>Flensburg</name>
  <desc>In Flensburg wird gerade eine klasse Betonlandschaft gebaut. Eröffnung am</desc>
  <url>https://skatemap.de/#921</url>
</wpt>
<wpt lat="47.8974" lon="11.4387">
  <name>Wolfratshausen</name>
  <desc>Auf diesem Skatepark erwarten euch auf einer schön im grünen gelegen Fläche</desc>
  <url>https://skatemap.de/#924</url>
</wpt>
<wpt lat="50.0924" lon="10.7935">
  <name>Ebern</name>
  <desc>Ein sehr kleiner Skateplatz mit einer Miniramp, einer Funbox und zwei Flatrails</desc>
  <url>https://skatemap.de/#926</url>
</wpt>
<wpt lat="47.656" lon="10.0874">
  <name>Kleinweiler-Hofen Skatehouse</name>
  <desc>Schöner Indoor  Skatepark im Allgäu.&lt;a href=\&quot;http://www.skate-house.de\&quot;</desc>
  <url>https://skatemap.de/#927</url>
</wpt>
<wpt lat="47.5469" lon="9.67773">
  <name>Lindau am Bodensee</name>
  <desc></desc>
  <url>https://skatemap.de/#928</url>
</wpt>
<wpt lat="47.6534" lon="9.87808">
  <name>Wangen im Allgäu</name>
  <desc></desc>
  <url>https://skatemap.de/#929</url>
</wpt>
<wpt lat="47.4209" lon="9.36135">
  <name>St. Gallen Kreuzbleiche</name>
  <desc>Organischer Skatepark mit indivueller Streetarea und 2 Bowls</desc>
  <url>https://skatemap.de/#931</url>
</wpt>
<wpt lat="47.5624" lon="8.88937">
  <name>Frauenfeld</name>
  <desc>Großer Skatepark mit Bowllandschaft die in eine Streetfläche übergeht.</desc>
  <url>https://skatemap.de/#932</url>
</wpt>
<wpt lat="51.4121" lon="6.7455">
  <name>Duisburg Hochfeld Rheinpark</name>
  <desc>Der Park ist ein Traum. Da gibt es alles was das Skaterherz begehrt außer Pipe</desc>
  <url>https://skatemap.de/#933</url>
</wpt>
<wpt lat="50.8491" lon="12.9218">
  <name>Chemnitz Skatehalle</name>
  <desc>Skatehalle in Chemnitz für Skater und Biker auf dem Gelände der Schönherr</desc>
  <url>https://skatemap.de/#937</url>
</wpt>
<wpt lat="49.6034" lon="6.5604">
  <name>Saarburg Beurig</name>
  <desc>Kleiner aber feiner Park mit Banks, Curbs, Ledge, Quarter und Handrail</desc>
  <url>https://skatemap.de/#938</url>
</wpt>
<wpt lat="49.177" lon="9.43642">
  <name>Pfedelbach Realschule</name>
  <desc>An der Schule findet man eine MINIramp, also wirklich mini.   Desweiteren eine</desc>
  <url>https://skatemap.de/#939</url>
</wpt>
<wpt lat="49.177" lon="9.43642">
  <name>Bretzfeld</name>
  <desc>Kleiner Park mit Glasfaser Obstacles, Rundrail mit leichtem Gefälle und</desc>
  <url>https://skatemap.de/#940</url>
</wpt>
<wpt lat="52.4039" lon="13.3662">
  <name>Müllberg Lichterfelde</name>
  <desc>relativ großer Park auf dem Müllberg (auch Ami-Berg oder Hippie Hügel) in</desc>
  <url>https://skatemap.de/#946</url>
</wpt>
<wpt lat="51.4822" lon="11.9658">
  <name>Halle Dirtpark</name>
  <desc>Dirt Park</desc>
  <url>https://skatemap.de/#947</url>
</wpt>
<wpt lat="48.8744" lon="9.26591">
  <name>Remseck Nische</name>
  <desc>kleine Pyra, 2 banks, grosse und kleine quater und ne nette curb-box</desc>
  <url>https://skatemap.de/#948</url>
</wpt>
<wpt lat="48.849" lon="9.18165">
  <name>Kornwestheim</name>
  <desc>standart funbox mit rail und 2 ledges, 1 quater, 1 olliebox, flatrail usw.</desc>
  <url>https://skatemap.de/#949</url>
</wpt>
<wpt lat="48.5217" lon="9.3547">
  <name>Dettingen a.d. Erms</name>
  <desc>schöne IOU Ramps mit allen obstacles die das Herz begehrt</desc>
  <url>https://skatemap.de/#951</url>
</wpt>
<wpt lat="52.2009" lon="8.56384">
  <name>Bünde</name>
  <desc>2 Quarters, eine Funbox, eine Curb, ein Kicker, eine Bank mit integrieter</desc>
  <url>https://skatemap.de/#952</url>
</wpt>
<wpt lat="47.3856" lon="8.53348">
  <name>Zürich Kornhausbrücke</name>
  <desc>Kult Skatepark mit DIY Ramps</desc>
  <url>https://skatemap.de/#953</url>
</wpt>
<wpt lat="48.127" lon="11.5996">
  <name>Postwiese</name>
  <desc>Auch klein aber fein, Der Boden lässt an manchen Stellen zu wünschen übrig</desc>
  <url>https://skatemap.de/#954</url>
</wpt>
<wpt lat="51.1155" lon="6.94199">
  <name>Langenfeld</name>
  <desc>Hat eine Table danach kommt ne Funbox mit London-Gab und Ledge und ne Rollin und</desc>
  <url>https://skatemap.de/#956</url>
</wpt>
<wpt lat="48.9821" lon="9.57978">
  <name>Murrhardt</name>
  <desc>Half- und Quarterpipe  Funbox mit Rail</desc>
  <url>https://skatemap.de/#957</url>
</wpt>
<wpt lat="53.2619" lon="7.91977">
  <name>Westerstede</name>
  <desc>Bank,Funbox mit Rail&amp;Curb,Curb,Quarterpipe</desc>
  <url>https://skatemap.de/#959</url>
</wpt>
<wpt lat="48.3048" lon="10.8943">
  <name>Haunstetten</name>
  <desc>Der Park ist ziemlich klein. Nur eine Transition mit einer Rail, einer Quater</desc>
  <url>https://skatemap.de/#960</url>
</wpt>
<wpt lat="50.8149" lon="6.90186">
  <name>Brühl</name>
  <desc>2 Quarter, 1 Funbox, Rail mit Kink, Ledge mit Kink 1 Curb Alles IOU Ramps</desc>
  <url>https://skatemap.de/#963</url>
</wpt>
<wpt lat="53.3018" lon="-6.291">
  <name>Dublin Bushy Park</name>
  <desc>Skate-Bowl</desc>
  <url>https://skatemap.de/#964</url>
</wpt>
<wpt lat="51.7167" lon="8.80623">
  <name>Paderborn Goldgrund</name>
  <desc>haufen von curbs, ledges pyramiden, quarters, banks etc.... handrail gaps</desc>
  <url>https://skatemap.de/#966</url>
</wpt>
<wpt lat="48.4338" lon="8.81484">
  <name>Bierlingen</name>
  <desc>Halfpipe spine funbox ramp 2 Quarter-ramps rail slide box</desc>
  <url>https://skatemap.de/#968</url>
</wpt>
<wpt lat="51.7664" lon="14.4025">
  <name>Cottbus Wheel Halle</name>
  <desc>Schöne Halle mit 2 Miniramps und Streetarea</desc>
  <url>https://skatemap.de/#969</url>
</wpt>
<wpt lat="48.6549" lon="9.25012">
  <name>Harthausen</name>
  <desc>Eine Halfpipe die wie vergessen neben einem Fußball platz steht ca. 2-3m Hoch</desc>
  <url>https://skatemap.de/#971</url>
</wpt>
<wpt lat="50.1457" lon="11.0596">
  <name>Lichtenfels</name>
  <desc>Bester Skatepark in der Region.  Obstacles: eine normale box, eine box mit</desc>
  <url>https://skatemap.de/#972</url>
</wpt>
<wpt lat="52.2505" lon="10.5336">
  <name>Braunschweig Skatehalle WhyO\'Land</name>
  <desc>Die Walhalla ist Braunschweigs einzige Skaterhalle. Sie befindet sich in der</desc>
  <url>https://skatemap.de/#973</url>
</wpt>
<wpt lat="49.4544" lon="7.81018">
  <name>Kaierslautern</name>
  <desc>Große Halfpipe, 4m hoch, 13m lang, 6 m breit, Treppe, top!</desc>
  <url>https://skatemap.de/#977</url>
</wpt>
<wpt lat="51.4869" lon="6.85483">
  <name>Open Airea</name>
  <desc>Skatepark mit sehr guten Boden einer Monsterpipe eine Miniramp und eine normale</desc>
  <url>https://skatemap.de/#976</url>
</wpt>
<wpt lat="47.7354" lon="11.5475">
  <name>Wackersberg-City</name>
  <desc>cooler privater Skatepark, jedoch sind Gäste nach absprache immer herzlich</desc>
  <url>https://skatemap.de/#979</url>
</wpt>
<wpt lat="51.1672" lon="13.6823">
  <name>Moritzburg</name>
  <desc>Eigenbau Skatepark aus Holz mit großer Funbox, mehrerern Banks, Quartern,</desc>
  <url>https://skatemap.de/#983</url>
</wpt>
<wpt lat="49.2803" lon="7.10953">
  <name>St. Ingbert</name>
  <desc>cooler park ... allerdings bei regen kaum zu befahren ... alles dran</desc>
  <url>https://skatemap.de/#982</url>
</wpt>
<wpt lat="50.7367" lon="-1.84434">
  <name>Bournemouth</name>
  <desc></desc>
  <url>https://skatemap.de/#984</url>
</wpt>
<wpt lat="48.7804" lon="11.4">
  <name>Ingolstadt</name>
  <desc>netter kleiner concrete rudolph park mit quarter, bank, 2 ollieboxen und</desc>
  <url>https://skatemap.de/#989</url>
</wpt>
<wpt lat="49.6485" lon="10.4241">
  <name>Markt Bibart</name>
  <desc>Ne Quarter ; Funbox mit Ledge (leider zu niedrig für Bmxer) ; Curb ( auch zu</desc>
  <url>https://skatemap.de/#991</url>
</wpt>
<wpt lat="53.6709" lon="7.58434">
  <name>Bensersiel</name>
  <desc>Eine Quarterpipe ne funbox und ne spine</desc>
  <url>https://skatemap.de/#992</url>
</wpt>
<wpt lat="54.3934" lon="9.18457">
  <name>Otterndorf</name>
  <desc>Quater,Große Miniramp,Bank,Funk-Box &amp; Mini roll in</desc>
  <url>https://skatemap.de/#993</url>
</wpt>
<wpt lat="54.1688" lon="9.8548">
  <name>Nortorf</name>
  <desc>Kleiner Skatepark - alle Obstacles aus Beton (K2)</desc>
  <url>https://skatemap.de/#996</url>
</wpt>
<wpt lat="49.9411" lon="11.6038">
  <name>Bayreuth Eintracht</name>
  <desc>Skatepark mit Quarter-Wallride Kombination, 3seitiger Funbox und verschieden</desc>
  <url>https://skatemap.de/#998</url>
</wpt>
<wpt lat="50.0961" lon="14.4421">
  <name>Prag Mystic</name>
  <desc>Überdachter Skatepark</desc>
  <url>https://skatemap.de/#1006</url>
</wpt>
<wpt lat="50.0713" lon="14.4912">
  <name>Prag Strassnice</name>
  <desc>Concrete Poollandschaft</desc>
  <url>https://skatemap.de/#1007</url>
</wpt>
<wpt lat="54.3069" lon="9.32553">
  <name>Erfde</name>
  <desc>Quater, funbox, rail, eine Curb, ein Kicker</desc>
  <url>https://skatemap.de/#1009</url>
</wpt>
<wpt lat="60.1915" lon="24.9274">
  <name>Helsinki</name>
  <desc>Skateplaza  Snakerun Curbs, Banks Ledges, Stairs, Banks, Gaps</desc>
  <url>https://skatemap.de/#1008</url>
</wpt>
<wpt lat="50.0831" lon="9.03707">
  <name>Alzenau</name>
  <desc>Eine Funbox, ne Miniramp, ne Ledge, ne Bank und ein Roll-In mit kleiner</desc>
  <url>https://skatemap.de/#1010</url>
</wpt>
<wpt lat="54.458" lon="9.24128">
  <name>Ostenfeld</name>
  <desc>Der park hat eine roll-in, ne quarter, ne große funbox, eine ollibox, einen</desc>
  <url>https://skatemap.de/#1011</url>
</wpt>
<wpt lat="49.5125" lon="11.2802">
  <name>Neunkirchen am Sand</name>
  <desc>Die Fläche des Parks ist leider nicht sehr groß. Doch für die Größe stehen</desc>
  <url>https://skatemap.de/#1012</url>
</wpt>
<wpt lat="48.0919" lon="9.7975">
  <name>Biberach</name>
  <desc>es gibt 2 funboxen mit jeweils 1 ner pyramiede, curbs mit Ledge,und ein rail bis</desc>
  <url>https://skatemap.de/#1013</url>
</wpt>
<wpt lat="46.6493" lon="11.0088">
  <name>Naturns</name>
  <desc>Wer im Sommer gern Snowboardet sollte unbedingt ins Schnalstal fahren. Wir haben</desc>
  <url>https://skatemap.de/#1014</url>
</wpt>
<wpt lat="48.0038" lon="11.1696">
  <name>Herrsching am Ammersee</name>
  <desc>Nagelneuer IOU-Ramps Skatepark mit dicker Pyramide, Curb Cut combo, einer fetten</desc>
  <url>https://skatemap.de/#1017</url>
</wpt>
<wpt lat="48.7818" lon="12.905">
  <name>Plattling</name>
  <desc>Funbox Jumpbox Spine Quarter Bank</desc>
  <url>https://skatemap.de/#1019</url>
</wpt>
<wpt lat="48.6548" lon="9.25002">
  <name>Stuttgart Harthausen Halfpipe</name>
  <desc>eine ungefär 5m große halfpipe  </desc>
  <url>https://skatemap.de/#1020</url>
</wpt>
<wpt lat="48.4546" lon="11.9256">
  <name>Moosburg</name>
  <desc>der Park ist auf diesem Satellitenbild leider noch nicht vorhanden da er sehr</desc>
  <url>https://skatemap.de/#1021</url>
</wpt>
<wpt lat="53.6452" lon="9.91887">
  <name>Hamburg Burgwedel</name>
  <desc>Auf dem Satellitenbild kann man die Rampe einigermaßen erkennen. Sie hat in der</desc>
  <url>https://skatemap.de/#1024</url>
</wpt>
<wpt lat="53.6539" lon="10.0593">
  <name>Poppenbüttel</name>
  <desc>Ist ein Asphaltierter Platz wo zwei kleine Rampen stehen und eine etwas</desc>
  <url>https://skatemap.de/#1025</url>
</wpt>
<wpt lat="53.6722" lon="10.235">
  <name>Ahrensburg</name>
  <desc>Eine längliche Funbox in der Mitte von zwei Quaterpipes bzw. schrägen Rampen.</desc>
  <url>https://skatemap.de/#1026</url>
</wpt>
<wpt lat="53.5072" lon="10.2074">
  <name>Bergedorf</name>
  <desc>Streetpark mit Miniramp.</desc>
  <url>https://skatemap.de/#1027</url>
</wpt>
<wpt lat="53.5828" lon="10.0452">
  <name>Barmbek</name>
  <desc>Miniramp und eine Rail und Box.</desc>
  <url>https://skatemap.de/#1028</url>
</wpt>
<wpt lat="52.0069" lon="8.50342">
  <name>Bielefeld Sennestadt</name>
  <desc>Halfpipe - Bielefeld Sennestadt Eine recht gut erhaltene Outdoor-Halfpipe aus</desc>
  <url>https://skatemap.de/#1029</url>
</wpt>
<wpt lat="50.0351" lon="9.03899">
  <name>Dettingen</name>
  <desc>Der Skatepark hat eine Quarter, kleine Funbox, Curb, Rail und eine Halfpipe.</desc>
  <url>https://skatemap.de/#1030</url>
</wpt>
<wpt lat="48.4093" lon="9.48747">
  <name>Munsingen</name>
  <desc>auf der karte ist deralte zusehen derwurde aber abgerisen und ein neuer von</desc>
  <url>https://skatemap.de/#1031</url>
</wpt>
<wpt lat="50.0361" lon="8.98412">
  <name>Seligenstadt</name>
  <desc>Der Skatepark hat eine Bank, Funbox mit Curb, Quarter, Curb und Halfpipe. Der</desc>
  <url>https://skatemap.de/#1033</url>
</wpt>
<wpt lat="45.4634" lon="9.22661">
  <name>Area Motta</name>
  <desc>A nice modular skatepark of those produced by Concrete-Rudolf. Bowl is super</desc>
  <url>https://skatemap.de/#1036</url>
</wpt>
<wpt lat="50.8878" lon="12.3478">
  <name>Schmölln</name>
  <desc>kleiner, niedrig gehaltener streetpark aus beton.  element: rail, miniramp,</desc>
  <url>https://skatemap.de/#1038</url>
</wpt>
<wpt lat="49.9277" lon="8.86837">
  <name>Münster Hessen</name>
  <desc>Noch kaum ein Jahr alt und schon Kult. Ein kleiner aber feiner Streetpark mit</desc>
  <url>https://skatemap.de/#1041</url>
</wpt>
<wpt lat="49.872" lon="8.65977">
  <name>Darmstadt Stadtmauer</name>
  <desc>am besten mal unter http://www.bmxworld.de/ schauen befindet sich im Umbau</desc>
  <url>https://skatemap.de/#1043</url>
</wpt>
<wpt lat="51.4963" lon="9.38657">
  <name>Hofgeismar Snake Run</name>
  <desc>Kleiner aber feiner park mit Snakerun und quater,funbox bank und nem kleinem</desc>
  <url>https://skatemap.de/#1046</url>
</wpt>
<wpt lat="52.4383" lon="12.4928">
  <name>Brandenburg Hohenstücken</name>
  <desc>es handelt sich hier um einen netten kleinen, aber abwechselungsreichen</desc>
  <url>https://skatemap.de/#1045</url>
</wpt>
<wpt lat="47.7278" lon="12.8783">
  <name>Bad Reichenhall Skatehalle Ignition</name>
  <desc></desc>
  <url>https://skatemap.de/#1047</url>
</wpt>
<wpt lat="50.4769" lon="8.89942">
  <name>Hungen</name>
  <desc>Eine Funbox mit einer kleinen Quaterpipe ohne Coping und einer kleinen Bank und</desc>
  <url>https://skatemap.de/#1050</url>
</wpt>
<wpt lat="48.8054" lon="8.31973">
  <name>Gaggenau</name>
  <desc>Der Park ist eher klein und gut zum Üben </desc>
  <url>https://skatemap.de/#1051</url>
</wpt>
<wpt lat="50.4849" lon="9.8009">
  <name>Weyhers Skateplatz</name>
  <desc>Kleiner Skateplatz, überdacht!</desc>
  <url>https://skatemap.de/#4921</url>
</wpt>
<wpt lat="48.3136" lon="10.845">
  <name>Inningen</name>
  <desc>Also ich war schon ein paar mal da und muss sagen der ist ziemlich cool zu</desc>
  <url>https://skatemap.de/#1053</url>
</wpt>
<wpt lat="51.9385" lon="8.85431">
  <name>Detmold</name>
  <desc>Der erste Detmolder Skatepark hat seine Tore, die nicht vorhanden sind,</desc>
  <url>https://skatemap.de/#1057</url>
</wpt>
<wpt lat="50.9297" lon="5.33823">
  <name>Hasselt</name>
  <desc>3000 m² concrete park</desc>
  <url>https://skatemap.de/#1058</url>
</wpt>
<wpt lat="50.8111" lon="7.18859">
  <name>Siegburg</name>
  <desc>Der Skate-Park wurde unter einer Brücke gebaut !</desc>
  <url>https://skatemap.de/#1059</url>
</wpt>
<wpt lat="51.5115" lon="7.09303">
  <name>Gelsenkirchen</name>
  <desc>1 mini Ramp ,1 quater , 1funbox, 1 bang,1 bischen längere quater ja und ne</desc>
  <url>https://skatemap.de/#1060</url>
</wpt>
<wpt lat="54.1371" lon="12.0761">
  <name>Rostock Schmarl</name>
  <desc>Erst vor kurzem gebauter Skatepark. Wunderbarer boden. Schöne Curbs, schön</desc>
  <url>https://skatemap.de/#1064</url>
</wpt>
<wpt lat="50.9237" lon="6.34296">
  <name>Jülich Brückenkopfpark</name>
  <desc>Guter Skatepark viel Platz und auch viel los.</desc>
  <url>https://skatemap.de/#1067</url>
</wpt>
<wpt lat="48.3952" lon="9.03866">
  <name>Belsen</name>
  <desc>kleiner aber feiner Park in der Nähe von Mössingen</desc>
  <url>https://skatemap.de/#1069</url>
</wpt>
<wpt lat="52.7678" lon="6.89433">
  <name>Emmen</name>
  <desc>Streetpark in Holland mit grosser Olliebox und Funbox. Boden aus Gehwegplatten.</desc>
  <url>https://skatemap.de/#1070</url>
</wpt>
<wpt lat="54.5156" lon="9.58783">
  <name>Schleswig</name>
  <desc>der neubau der dänischsprachige schule (A. P. Møller Skolen) wartet unter</desc>
  <url>https://skatemap.de/#1071</url>
</wpt>
<wpt lat="52.3744" lon="14.0713">
  <name>Fürstenwalde</name>
  <desc>jetzt auf dem sateliten siht man den nciht da siht man das er gerade gebaut wird</desc>
  <url>https://skatemap.de/#1075</url>
</wpt>
<wpt lat="52.4284" lon="10.7896">
  <name>Wolfsburg Phaeno</name>
  <desc>Streetspot zahlreiche Gaps Schrägen mit rails Direkt daneben Designer-Outlet</desc>
  <url>https://skatemap.de/#1076</url>
</wpt>
<wpt lat="51.6759" lon="7.79802">
  <name>Hamm</name>
  <desc>Schöner Skatepark mit Funbox, Bank, Stairs, Rails und alles weitere, was das</desc>
  <url>https://skatemap.de/#1077</url>
</wpt>
<wpt lat="50.7084" lon="12.7741">
  <name>Stollberg</name>
  <desc>2008 errichteter neuer Skatepark in Stollberg. Der Betonpark ist von Concrete</desc>
  <url>https://skatemap.de/#1078</url>
</wpt>
<wpt lat="48.2811" lon="8.8576">
  <name>Balingen</name>
  <desc>Ein kleiner Park direkt neben dem Au-Stadion mit ner Quarter, Bank, Box und ner</desc>
  <url>https://skatemap.de/#1082</url>
</wpt>
<wpt lat="48.4851" lon="8.93685">
  <name>Rottenburg am Neckar</name>
  <desc>Gestartet wird auf einer 2 Meter hohen Quaterpipe, danach kommt eine funbox.</desc>
  <url>https://skatemap.de/#1083</url>
</wpt>
<wpt lat="47.5738" lon="7.61506">
  <name>Basel Pumpwerk</name>
  <desc>Klein aber fein, wie man so schön sagt. Es hat eine Indoorstreetfläche aber</desc>
  <url>https://skatemap.de/#1087</url>
</wpt>
<wpt lat="50.1007" lon="8.56442">
  <name>Frankfurt Nied</name>
  <desc>Der Name \&quot;Nied Skate-Park\&quot; ist total übertrieben, und Ich trage das hier nur</desc>
  <url>https://skatemap.de/#1089</url>
</wpt>
<wpt lat="49.8628" lon="12.2827">
  <name>Tirschenreuth</name>
  <desc></desc>
  <url>https://skatemap.de/#1088</url>
</wpt>
<wpt lat="50.1499" lon="9.03102">
  <name>Rodenbach</name>
  <desc>Curb, Bank, Railslide, Quarter x 2, Fun Box, Transition Hip</desc>
  <url>https://skatemap.de/#1090</url>
</wpt>
<wpt lat="47.398" lon="8.48241">
  <name>Zürich Freestyle-Halle</name>
  <desc>Die Freestyle-Halle wurde am 13. November 2008 offiziell eröffnet. Ihr seid</desc>
  <url>https://skatemap.de/#1110</url>
</wpt>
<wpt lat="51.8463" lon="10.8049">
  <name>Wernigerode</name>
  <desc>relativ gute Miniramp, nen paar kleine ramps und ne rail im flat</desc>
  <url>https://skatemap.de/#1096</url>
</wpt>
<wpt lat="51.7661" lon="10.8018">
  <name>Elbingerode</name>
  <desc>ziemlich kleiner, kaputter, schlechter, hässlicher Skatepark mit scheiß Belag</desc>
  <url>https://skatemap.de/#1097</url>
</wpt>
<wpt lat="49.3555" lon="8.42583">
  <name>Speyer Nord</name>
  <desc>Der Skatepark hier ist nicht schlecht jedoch sind manchmal kleine Kinder da die</desc>
  <url>https://skatemap.de/#1111</url>
</wpt>
<wpt lat="47.8291" lon="9.65346">
  <name>Baienfurt</name>
  <desc>Der Park (2008 gebaut/aufgestellt) besteht aus einigen Beton Elementen der Firma</desc>
  <url>https://skatemap.de/#1100</url>
</wpt>
<wpt lat="48.5102" lon="9.04249">
  <name>Tübingen</name>
  <desc>Die Halfpipe ist ungefähr 3m oder Höher und ist so gebaut das man seitlich in</desc>
  <url>https://skatemap.de/#1102</url>
</wpt>
<wpt lat="51.4491" lon="7.52346">
  <name>Schwerte</name>
  <desc>Ist ein kleiner Skatepark mit Halfpipe und Funbox. Außerdem steht neben dem</desc>
  <url>https://skatemap.de/#1106</url>
</wpt>
<wpt lat="51.4491" lon="7.52346">
  <name>Dortmund Holzen</name>
  <desc>Es ist ein kleiner, schöner Park. Es gibt eine Funbox, zwei Quarterpipes und</desc>
  <url>https://skatemap.de/#1107</url>
</wpt>
<wpt lat="47.254" lon="9.58463">
  <name>Oberau</name>
  <desc>Toller Park mit einer eher klein ausgefallenen Halfpipe (perfekt zum</desc>
  <url>https://skatemap.de/#1108</url>
</wpt>
<wpt lat="48.8832" lon="8.32773">
  <name>Malsch</name>
  <desc>2 Quaters, 1 box, 2 Tables, 1 Pyra</desc>
  <url>https://skatemap.de/#1109</url>
</wpt>
<wpt lat="51.9693" lon="7.29384">
  <name>Billerbeck Snakerun</name>
  <desc>Snake (Bowl) am \&quot;Sportzentrum Helker Berg\&quot;.</desc>
  <url>https://skatemap.de/#1113</url>
</wpt>
<wpt lat="47.1648" lon="9.47853">
  <name>Buchs Skatehalle</name>
  <desc>Streetpark mit Bank2Bank, Quarderramps Rails Curbs</desc>
  <url>https://skatemap.de/#1118</url>
</wpt>
<wpt lat="50.8515" lon="7.99336">
  <name>Siegen Eiserfeld</name>
  <desc>Mini-Ramp, 2 Arten von Fun-Boxen, Anfahrtsrampen</desc>
  <url>https://skatemap.de/#1117</url>
</wpt>
<wpt lat="53.6521" lon="11.3619">
  <name>Schwerin Lankow</name>
  <desc>2 pools mit spineramp's ander seite quater mit wall 1 ner funbox mit ladge</desc>
  <url>https://skatemap.de/#1119</url>
</wpt>
<wpt lat="47.1317" lon="7.24074">
  <name>Biel Loud Minority Skatepark</name>
  <desc>-500m2 Skateboard und BMX optimierte Fläche -Boden 100% mit Holz bedeckt -12m</desc>
  <url>https://skatemap.de/#1120</url>
</wpt>
<wpt lat="48.3069" lon="10.9808">
  <name>Kissing</name>
  <desc>Also der Park is nicht groß aber echt nen Besuch Wert. Er beinhaltet ne</desc>
  <url>https://skatemap.de/#1121</url>
</wpt>
<wpt lat="28.1424" lon="-15.4298">
  <name>Gran Canaria Las Palmas</name>
  <desc>Lokal Park in der Hauptstadt. Etwas abgeranzt aber skatebar.</desc>
  <url>https://skatemap.de/#1128</url>
</wpt>
<wpt lat="50.7093" lon="7.15003">
  <name>Bonn</name>
  <desc>miniramp und halfpipe</desc>
  <url>https://skatemap.de/#1124</url>
</wpt>
<wpt lat="46.8269" lon="7.29924">
  <name>Wuiuai Skatehalle</name>
  <desc>Die Hallenfläche beträgt etwas mehr als 200 Quadratmeter. Die Elemente: Banks,</desc>
  <url>https://skatemap.de/#1126</url>
</wpt>
<wpt lat="27.7591" lon="-15.5955">
  <name>Gran Canaria Maspalomas</name>
  <desc>Netter Betonskatepark</desc>
  <url>https://skatemap.de/#1127</url>
</wpt>
<wpt lat="48.7972" lon="9.2262">
  <name>Stuttgart Bad Canstatt Boost Skatehalle</name>
  <desc>Die Öffnungszeiten ändern sich bei Ferien, Veranstaltungen oder sonstige</desc>
  <url>https://skatemap.de/#1129</url>
</wpt>
<wpt lat="50.0827" lon="8.86922">
  <name>Obertshausen Hausen</name>
  <desc>1 Miniramp ,2 kicker , 1 Pyramide mit Quaterpipe , 2 quaterpipes , 3 rails</desc>
  <url>https://skatemap.de/#1131</url>
</wpt>
<wpt lat="53.1006" lon="8.7624">
  <name>Bremen Überseepark und Pala Bend Pool</name>
  <desc>Fuckin' amazing Skatepark!! Including a massive Bowlarea, Street Area and the</desc>
  <url>https://skatemap.de/#3014</url>
</wpt>
<wpt lat="50.0023" lon="8.42575">
  <name>Rüsselsheim</name>
  <desc>Breite Bank und Quarterppipe, sowie große Pyra mit Rail. </desc>
  <url>https://skatemap.de/#1136</url>
</wpt>
<wpt lat="51.3405" lon="7.48815">
  <name>Hagen</name>
  <desc>An der Gesamtschule Eilpe</desc>
  <url>https://skatemap.de/#1139</url>
</wpt>
<wpt lat="48.8912" lon="9.38279">
  <name>Leutenbach</name>
  <desc>sehr kleiner skatepark mit 2 rails, einer quarter und ner curb oder so...</desc>
  <url>https://skatemap.de/#1141</url>
</wpt>
<wpt lat="51.6922" lon="7.89065">
  <name>Hamm</name>
  <desc>kleiner Skatepark der nicht gerade toll ist.Meist von Jugendlichen belagert oder</desc>
  <url>https://skatemap.de/#1140</url>
</wpt>
<wpt lat="52.3223" lon="10.2415">
  <name>Peine</name>
  <desc>Pyra, Funbox, Miniramp, Spine, Rails, Curbs, Stair-Set, Kicker....</desc>
  <url>https://skatemap.de/#1142</url>
</wpt>
<wpt lat="48.5225" lon="9.03771">
  <name>Tübingen West</name>
  <desc>gemütlicher Skatepark mit gemütlichen Obstacles...gut für Anfänger...macht</desc>
  <url>https://skatemap.de/#1143</url>
</wpt>
<wpt lat="51.5208" lon="6.93054">
  <name>Ehrenpark</name>
  <desc>Alle Ramps aus Plastik. Das einzig gute ist das Rail. Wird demnächst</desc>
  <url>https://skatemap.de/#1146</url>
</wpt>
<wpt lat="51.5675" lon="6.99616">
  <name>Gladbecker</name>
  <desc>Schön glatter Boden (nicht rutschig) Alles aus Betonguss, alles gut in</desc>
  <url>https://skatemap.de/#1147</url>
</wpt>
<wpt lat="47.4392" lon="8.4627">
  <name>Regensdorf</name>
  <desc>Gut erhaltener kleiner Streetpark mit Beton Obstacles und Teeruntergrund. -</desc>
  <url>https://skatemap.de/#1148</url>
</wpt>
<wpt lat="47.7607" lon="11.5796">
  <name>Bad Tölz</name>
  <desc>Der Tölzer Betonskatepark wurde ende 2008 gebaut und befindet sich direkt in</desc>
  <url>https://skatemap.de/#1152</url>
</wpt>
<wpt lat="48.5492" lon="10.8689">
  <name>Meitingen</name>
  <desc>naja, ganz netter kleiner skatepark in unserem kaff. wenn ihr etwas besser fahrt</desc>
  <url>https://skatemap.de/#1156</url>
</wpt>
<wpt lat="48.1032" lon="11.5181">
  <name>München Südpark</name>
  <desc>Ein sehr kleiner park, aus teer, gut befahrbar. Kleine, lange ollibox und eine</desc>
  <url>https://skatemap.de/#1161</url>
</wpt>
<wpt lat="51.5204" lon="7.46159">
  <name>Dortmund Keuninghaus</name>
  <desc>Indoor Skatepark in Dortmund.</desc>
  <url>https://skatemap.de/#1162</url>
</wpt>
<wpt lat="48.4426" lon="9.05633">
  <name>Half Pipe Dusslingen</name>
  <desc>Half Pipe Dusslingen</desc>
  <url>https://skatemap.de/#1166</url>
</wpt>
<wpt lat="50.7976" lon="12.8992">
  <name>Chemnitz Heckertmini</name>
  <desc>Beste mini rampe in ganz chemnitz</desc>
  <url>https://skatemap.de/#1175</url>
</wpt>
<wpt lat="49.2867" lon="8.68675">
  <name>Wiesloch</name>
  <desc>Miniramp ca.1.80 hoch und 6m breit. Schön asphaltierter Platz mit</desc>
  <url>https://skatemap.de/#1176</url>
</wpt>
<wpt lat="48.8665" lon="9.2214">
  <name>Pattonville</name>
  <desc>Genialer Park</desc>
  <url>https://skatemap.de/#1177</url>
</wpt>
<wpt lat="51.7895" lon="8.83478">
  <name>Bad Lippspringe</name>
  <desc>Funbox, Quarter</desc>
  <url>https://skatemap.de/#1178</url>
</wpt>
<wpt lat="50.1031" lon="8.96033">
  <name>Hanau-Großauheim</name>
  <desc>Kleiner Skatepark in Hanau-Großauheim.</desc>
  <url>https://skatemap.de/#1180</url>
</wpt>
<wpt lat="50.9577" lon="6.95411">
  <name>Köln Nippes Lohserampe</name>
  <desc> Die Lohse-Rampe liegt mitten im Grüngürtel an der Neusser Straße/ Ecke</desc>
  <url>https://skatemap.de/#1181</url>
</wpt>
<wpt lat="49.6498" lon="8.78238">
  <name>Fürth Odenwald</name>
  <desc>Der kleine Outdoor Skatepark von Fürth (Odenwald). Leider nur drei Obstacles</desc>
  <url>https://skatemap.de/#1182</url>
</wpt>
<wpt lat="52.57" lon="13.3886">
  <name>Pankow Bürgerpark</name>
  <desc>kleiner Park mit Table, Spine, Miniramp und Quarter</desc>
  <url>https://skatemap.de/#1185</url>
</wpt>
<wpt lat="49.2037" lon="7.60475">
  <name>Pirmasens</name>
  <desc>großes areal, bodenbelag 2-3, obstacles neu aus beton, eine fette curb, bar,</desc>
  <url>https://skatemap.de/#1186</url>
</wpt>
<wpt lat="51.9283" lon="7.62474">
  <name>Münster Berg Fidel</name>
  <desc>20 jahre alter skatepark mit snakerun,streetfläche und dickem bowl! MEGA</desc>
  <url>https://skatemap.de/#1188</url>
</wpt>
<wpt lat="49.4595" lon="10.965">
  <name>Fürth Dambach Schneckenbrücke</name>
  <desc>Ein sehr kleiner Metal Skatepark am Kanal. Es gibt eine kleine Curb und eine Box</desc>
  <url>https://skatemap.de/#1189</url>
</wpt>
<wpt lat="50.6542" lon="8.28506">
  <name>Merkenbach</name>
  <desc>2 Quarterpipes, 1 Pyramide, 1 Miniramp und 2 Rails</desc>
  <url>https://skatemap.de/#1191</url>
</wpt>
<wpt lat="47.7912" lon="9.60553">
  <name>Ravensburg</name>
  <desc>Der Emerica-Skatepark in Ravenburg hat alles, was das Herz begehrt:      *</desc>
  <url>https://skatemap.de/#1193</url>
</wpt>
<wpt lat="49.193" lon="12.0447">
  <name>Burglengenfeld</name>
  <desc>Ein kleiner gemütlicher Skatepark mit Mini Ramp, ner FunBox, Curb Box, einer</desc>
  <url>https://skatemap.de/#1196</url>
</wpt>
<wpt lat="47.8834" lon="13.0072">
  <name>Anthering</name>
  <desc>Hindernisse: Betonwände, Funbox, Grindboxes und eine Spine-Ramp</desc>
  <url>https://skatemap.de/#1197</url>
</wpt>
<wpt lat="48.7909" lon="9.1844">
  <name>Stuttgart Friedhofstrasse</name>
  <desc>Bowl-Area mit Shallow End, Speed Corner, Deep End, Taco und Oververt-Pocket auf</desc>
  <url>https://skatemap.de/#1198</url>
</wpt>
<wpt lat="51.4981" lon="7.33354">
  <name>Dortmund Lütgen</name>
  <desc>Ein netter, kleiner Skatepark mit einer kleinen Funbox und noch ein bisschen</desc>
  <url>https://skatemap.de/#1199</url>
</wpt>
<wpt lat="52.2062" lon="5.95115">
  <name>Apeldoorn</name>
  <desc>Indoor fun-/skatepark. Miniramp, streetcourse, bowl + anything you need.</desc>
  <url>https://skatemap.de/#1200</url>
</wpt>
<wpt lat="47.5943" lon="7.57708">
  <name>Hüningen</name>
  <desc></desc>
  <url>https://skatemap.de/#1204</url>
</wpt>
<wpt lat="50.9971" lon="11.3052">
  <name>Weimar</name>
  <desc>ca. 1000m² großer Skatepark mit großen Bowl und Streetbereich mit Kidney</desc>
  <url>https://skatemap.de/#1205</url>
</wpt>
<wpt lat="52.4259" lon="9.4612">
  <name>Luthe Mini-Bowl</name>
  <desc>1m tief, 5 durchmesser, kreisrund, edelstahlcoping.  8 Jahre alter</desc>
  <url>https://skatemap.de/#1210</url>
</wpt>
<wpt lat="48.9902" lon="8.44707">
  <name>Killisfeld</name>
  <desc>Skatepark Größe ca. 30x18 2 Funboxen 1,2m hohe Quarterpipe 1 ein</desc>
  <url>https://skatemap.de/#1211</url>
</wpt>
<wpt lat="54.1008" lon="10.8502">
  <name>Neustadt</name>
  <desc>In Neustadt ist ein kleiner Streetpark, mit einer Quater-Pipe, einer Bank, einem</desc>
  <url>https://skatemap.de/#1213</url>
</wpt>
<wpt lat="51.9973" lon="7.71946">
  <name>Handorf</name>
  <desc>Eine quater eine banana curb und eine funbox </desc>
  <url>https://skatemap.de/#1214</url>
</wpt>
<wpt lat="49.3438" lon="7.18006">
  <name>Neunkirchen</name>
  <desc>miniramp, 2 rails, funbox, bank, 2 quterpipes</desc>
  <url>https://skatemap.de/#1216</url>
</wpt>
<wpt lat="51.4231" lon="6.89516">
  <name>Mülheim a. d. Ruhr Südstraße</name>
  <desc>Ein schöner Park mit vielen Curbs, zwei schönen Rails und einer langen</desc>
  <url>https://skatemap.de/#1217</url>
</wpt>
<wpt lat="51.3271" lon="6.57742">
  <name>Krefeld HBF</name>
  <desc>Also...   dieser park is eigentlich relativ klein...   zum fahren...   hat abba</desc>
  <url>https://skatemap.de/#1218</url>
</wpt>
<wpt lat="48.4093" lon="8.66646">
  <name>Betra</name>
  <desc>Kleiner Skatepark mit einer Speedramp (halbe Quater^^) und einer funbox. Ist</desc>
  <url>https://skatemap.de/#1220</url>
</wpt>
<wpt lat="48.3581" lon="10.8424">
  <name>Stadtbergen Miniramp</name>
  <desc>Schöne Miniramp mit großem Coping, Breiter Spine und schön zu fahrendem</desc>
  <url>https://skatemap.de/#1221</url>
</wpt>
<wpt lat="53.0882" lon="8.80967">
  <name>Bremen Schlachthof</name>
  <desc>Chiliger Skatepark eine Bowl mit Roll-in und Spine, MIniramp mit Spine und</desc>
  <url>https://skatemap.de/#1222</url>
</wpt>
<wpt lat="49.9691" lon="7.88513">
  <name>Bingen Skateplaza</name>
  <desc>Betonplaza von www.bowl.ch.  Street und Keyhole Bowl im ehemaligen Gelände</desc>
  <url>https://skatemap.de/#1224</url>
</wpt>
<wpt lat="49.0779" lon="9.15455">
  <name>Lauffen</name>
  <desc>1 bank ca. 1,80m, 1 quarter ca 1,80m, 1 curb, 1 vierseitige hip, 1 miniramp ca.</desc>
  <url>https://skatemap.de/#1228</url>
</wpt>
<wpt lat="49.4629" lon="8.61488">
  <name>Ladenburg</name>
  <desc>Große und beste Miniramp im Umkreis, 2 Quarters,große Bank, gute Rail ,</desc>
  <url>https://skatemap.de/#1229</url>
</wpt>
<wpt lat="51.344" lon="12.3784">
  <name>Leipzig</name>
  <desc>eine Halfpipe, Miniramp und eine Funnbox</desc>
  <url>https://skatemap.de/#1231</url>
</wpt>
<wpt lat="48.1419" lon="11.4766">
  <name>West</name>
  <desc>Neben dem eigentlichen park befindet sich noch eine größere leere fläche, auf</desc>
  <url>https://skatemap.de/#1232</url>
</wpt>
<wpt lat="53.1809" lon="8.69499">
  <name>Bremen Grohn</name>
  <desc>Große Dirtbahn, Double Miniramp mit Spine, Quater, Wellen, Funbox der Skatepark</desc>
  <url>https://skatemap.de/#1234</url>
</wpt>
<wpt lat="53.3042" lon="9.28791">
  <name>Zeven</name>
  <desc>Ab August gibt es in zeven wieder eine Skate anlage (indoor) infos gibs immer</desc>
  <url>https://skatemap.de/#1237</url>
</wpt>
<wpt lat="51.0509" lon="13.3107">
  <name>Nossen</name>
  <desc>Skateplatz direkt neben der Brücke zum Fußballplatz. Asphaltierte Fläche mit</desc>
  <url>https://skatemap.de/#1239</url>
</wpt>
<wpt lat="51.4829" lon="7.21181">
  <name>Sevi</name>
  <desc>Kleiner Park in Bochum Wattenscheid. </desc>
  <url>https://skatemap.de/#1238</url>
</wpt>
<wpt lat="49.1935" lon="11.2029">
  <name>Hilpoltstein</name>
  <desc>Schön geräumiger und sauberer Skateplatz des TV-Hilpoltstein Rollsport, mit</desc>
  <url>https://skatemap.de/#1241</url>
</wpt>
<wpt lat="46.3259" lon="8.00552">
  <name>Naters Funpark</name>
  <desc>2. grösster Outdoor-Skatepark in der Schweuz mit: Miniramp, Kingsizepipe, 4</desc>
  <url>https://skatemap.de/#1242</url>
</wpt>