<?xml version="1.0"?>
<gpx version="1.1" creator="GDAL 3.4.1" xmlns:xsi="http://www.w3.org/2001/XMLSchema-instance" xmlns:ogr="http://osgeo.org/gdal" xmlns="http://www.topografix.com/GPX/1/1" xsi:schemaLocation="http://www.topografix.com/GPX/1/1 http://www.topografix.com/GPX/1/1/gpx.xsd">
<metadata><bounds minlat="41.478642399999998" minlon="-4.491504000000000" maxlat="50.925481900000001" maxlon="9.533500000000000"/></metadata>                   
<wpt lat="48.1277845" lon="6.1072458">
  <name>Les Pampilles de La Plaine</name>
  <desc>Élevage de chèvres et transformation fromagère dans La Plaine des Vosges </desc>
    <url>https://wwoof.fr/de/host/14276</url>
</wpt>
<wpt lat="44.280965" lon="0.549488">
  <name>Ferme des Chants du moulin</name>
  <desc>Dans le pays vallonné de coteaux entre le Lot et la Garonne à 15mn d Agen, activité de maraîchage</desc>
    <url>https://wwoof.fr/de/host/14271</url>
</wpt>
<wpt lat="45.7696004" lon="2.5982105">
  <name>Aurélien MOREL</name>
  <desc>Ferme AB nord ouest massif central</desc>
    <url>https://wwoof.fr/de/host/14268</url>
</wpt>
<wpt lat="49.2106328" lon="0.6049204">
  <name>Les jardins de la mésangère</name>
  <desc>Micro ferme bio en maraîchage sur sol vivant</desc>
    <url>https://wwoof.fr/de/host/14266</url>
</wpt>
<wpt lat="46.6424618" lon="5.117886">
  <name>Ferme la Buissenée</name>
  <desc>Petite ferme bio au coeur de la Bresse</desc>
    <url>https://wwoof.fr/de/host/14262</url>
</wpt>
<wpt lat="44.6251589" lon="1.218815">
  <name>Ferme Bio Familiale</name>
  <desc>Ferme biologique dans le Lot</desc>
    <url>https://wwoof.fr/de/host/13995</url>
</wpt>
<wpt lat="48.1917244" lon="3.137774">
  <name>Ancienne Ferme du Chaubourg </name>
  <desc>Yonne-nord, potager, plantes médicinales, permaculture.</desc>
    <url>https://wwoof.fr/de/host/13991</url>
</wpt>
<wpt lat="46.5174833" lon="0.3302739">
  <name>Abbaye Saint Martin de Ligugé</name>
  <desc>Une communauté de moines bénédictins vivants selon la Règle de Benoît.</desc>
    <url>https://wwoof.fr/de/host/13988</url>
</wpt>
<wpt lat="44.9018435" lon="0.5985172">
  <name>Le Grand Monsac</name>
  <desc>Maison de campagne au coeur de la Dordogne</desc>
    <url>https://wwoof.fr/de/host/13980</url>
</wpt>
<wpt lat="44.2893542" lon="0.3397754">
  <name>Le Jardiculteur</name>
  <desc>Ferme en maraîchage sur sol vivant et permaculture en Lot-et-Garonne</desc>
    <url>https://wwoof.fr/de/host/13979</url>
</wpt>
<wpt lat="47.9632764" lon="-3.7547869">
  <name>La ferme de Kercabon Vras</name>
  <desc>Maraichage diversifié  bio ainsi que des fraises de plein champs </desc>
    <url>https://wwoof.fr/de/host/13978</url>
</wpt>
<wpt lat="44.2606867" lon="1.571384">
  <name>Chouette</name>
  <desc>Ferme en maraichage diversifié biologique dans le Quercy</desc>
    <url>https://wwoof.fr/de/host/13977</url>
</wpt>
<wpt lat="45.4271381" lon="0.9492363">
  <name>Fermette de Franky </name>
  <desc> 5ha dont 3 de bois et 2 de prairies a exploiter </desc>
    <url>https://wwoof.fr/de/host/13975</url>
</wpt>
<wpt lat="44.2911106" lon="1.3817512">
  <name>Les fruits du Lot</name>
  <desc>Ferme biologique petits fruits et équidés dans le Quercy Blanc</desc>
    <url>https://wwoof.fr/de/host/13971</url>
</wpt>
<wpt lat="44.564391" lon="1.785908">
  <name>Salsac</name>
  <desc>Ferme maraîchère dans la vallée du Célé (46)</desc>
    <url>https://wwoof.fr/de/host/13965</url>
</wpt>
<wpt lat="45.969477" lon="0.45815">
  <name>Ventchanté : les volets bleus de Boissanné</name>
  <desc>Habitat traditionnel orienté permaculture et usage des simples</desc>
    <url>https://wwoof.fr/de/host/13964</url>
</wpt>
<wpt lat="44.23044" lon="1.065774">
  <name>Les peyrieres</name>
  <desc>Verger, jardin, petit bois d'une surface de 7000m2 environ</desc>
    <url>https://wwoof.fr/de/host/13961</url>
</wpt>
<wpt lat="46.8110444" lon="5.2474388">
  <name>La ferme du bief</name>
  <desc>Ferme biologique certifiée en Bresse bourguignonne</desc>
    <url>https://wwoof.fr/de/host/13960</url>
</wpt>
<wpt lat="49.239273" lon="0.363646">
  <name>GAEC LES JARDINS DU TORMELLIER</name>
  <desc>Ferme biologique situé au coeur du pays d'Auge </desc>
    <url>https://wwoof.fr/de/host/13954</url>
</wpt>
<wpt lat="42.393714" lon="9.366092">
  <name>Orte di A Verdese</name>
  <desc>Micro-ferme en montagne</desc>
    <url>https://wwoof.fr/de/host/13953</url>
</wpt>
<wpt lat="45.2015119" lon="1.7572776">
  <name>MicroFerme de Perot</name>
  <desc>Installation en petits fruits, osiericulture et Design permacole.</desc>
    <url>https://wwoof.fr/de/host/13951</url>
</wpt>
<wpt lat="47.209926" lon="-1.971102">
  <name>La Caffinière</name>
  <desc>Des abeilles et des chevaux</desc>
    <url>https://wwoof.fr/de/host/13948</url>
</wpt>
<wpt lat="45.602703" lon="2.819578">
  <name>Ecolieu de la Ferme du Guery</name>
  <desc>Ferme d'altitude (1300m) au milieu du Massif du Sancy</desc>
    <url>https://wwoof.fr/de/host/13945</url>
</wpt>
<wpt lat="44.4617975" lon="1.1682468">
  <name>Paysannerie d'abondance</name>
  <desc>Reanimation d'un vieux corps de ferme isolé dans un endroit de beauté naturelle exceptionelle.</desc>
    <url>https://wwoof.fr/de/host/13942</url>
</wpt>
<wpt lat="45.161857" lon="5.848062">
  <name>Ferme de Loutas</name>
  <desc>Ferme biologique sur les balcons de Belledonne</desc>
    <url>https://wwoof.fr/de/host/13939</url>
</wpt>
<wpt lat="44.10962" lon="7.300745">
  <name>Gaec des alpages du mercantour</name>
  <desc>Eleveur bovin fromager d'alpage</desc>
    <url>https://wwoof.fr/de/host/13935</url>
</wpt>
<wpt lat="46.145168" lon="4.6770499">
  <name>DOMAINE Mee GODARD</name>
  <desc>Domaine viticole situé dans le Beaujolais</desc>
    <url>https://wwoof.fr/de/host/13933</url>
</wpt>
<wpt lat="48.0596469" lon="7.2648238">
  <name>Les Jardins du Poussin Vert</name>
  <desc>Maraîchage et petits fruits en Bio Colmar</desc>
    <url>https://wwoof.fr/de/host/13931</url>
</wpt>
<wpt lat="47.209601" lon="4.101909">
  <name>Sous le vent</name>
  <desc>Retreat centre with organic garden (incl. flower garden, food forest and greenhouse). </desc>
    <url>https://wwoof.fr/de/host/13930</url>
</wpt>
<wpt lat="49.0213454" lon="0.0862518">
  <name>La Cour St Jean</name>
  <desc>Ferme d'élevage biologique en Normandie</desc>
    <url>https://wwoof.fr/de/host/13928</url>
</wpt>
<wpt lat="47.684252" lon="-3.231759">
  <name>Au chant des oiseaux à la Chapate</name>
  <desc>Microferme vivrière en permaculture</desc>
    <url>https://wwoof.fr/de/host/13927</url>
</wpt>
<wpt lat="42.881053" lon="0.943188">
  <name>La loubatère</name>
  <desc>Ferme de montagne</desc>
    <url>https://wwoof.fr/de/host/13926</url>
</wpt>
<wpt lat="45.2097087" lon="6.7151477">
  <name>La chèvrerie des Arcosses </name>
  <desc>Chèvrerie en haute maurienne en savoie au cœur des montagnes</desc>
    <url>https://wwoof.fr/de/host/13924</url>
</wpt>
<wpt lat="43.992704" lon="2.654274">
  <name>La citadelle de Gaïa </name>
  <desc>Projet eco hameau autonome </desc>
    <url>https://wwoof.fr/de/host/13919</url>
</wpt>
<wpt lat="44.232171" lon="1.062981">
  <name>Pech de Miramont</name>
  <desc>Ferme polyvalente à échelle familiale en écotourisme</desc>
    <url>https://wwoof.fr/de/host/13917</url>
</wpt>
<wpt lat="44.93349" lon="1.963722">
  <name>La ferme du Pilou</name>
  <desc>Ferme bio, élevage porc noir plein air et 10aines vaches, culture pommes de terres et divers légumes</desc>
    <url>https://wwoof.fr/de/host/13916</url>
</wpt>
<wpt lat="44.9412829" lon="0.4326505">
  <name>La ferme du lac </name>
  <desc>Ferme biologique en maraîchage </desc>
    <url>https://wwoof.fr/de/host/13915</url>
</wpt>
<wpt lat="46.583575" lon="1.497155">
  <name>Le Jardin aux Baies</name>
  <desc>Ferme maraîchère en agro-écologie : fraises et autres fruits et légumes</desc>
    <url>https://wwoof.fr/de/host/13912</url>
</wpt>
<wpt lat="45.422355" lon="0.986412">
  <name>Ferme Sinsac</name>
  <desc>Ferme bio en agroécologie</desc>
    <url>https://wwoof.fr/de/host/13911</url>
</wpt>
<wpt lat="48.405907" lon="-0.266841">
  <name>Earl du Valdepail </name>
  <desc>Ferme laitière bio système tout Herbe en Nord Mayenne </desc>
    <url>https://wwoof.fr/de/host/13907</url>
</wpt>
<wpt lat="44.46202" lon="2.268385">
  <name>Les Jardins du Batut</name>
  <desc>Microferme maraîchère agroecologique  et accueil à la ferme</desc>
    <url>https://wwoof.fr/de/host/13906</url>
</wpt>
<wpt lat="44.175969" lon="1.805001">
  <name>Oze  l'abondance !</name>
  <desc>Jeune collectif engagé dans l'autonomie et l'écologie</desc>
    <url>https://wwoof.fr/de/host/13904</url>
</wpt>
<wpt lat="44.992305" lon="4.493195">
  <name>La Mûre Gourmande</name>
  <desc>Ferme biologique, culture de mûres, transformation de fruits</desc>
    <url>https://wwoof.fr/de/host/13903</url>
</wpt>
<wpt lat="48.6010319" lon="-4.491504">
  <name>Le vieux potager</name>
  <desc>Ferme  maraîchage biologique certifié sur Plouguerneau</desc>
    <url>https://wwoof.fr/de/host/13902</url>
</wpt>
<wpt lat="48.391992" lon="-4.100545">
  <name>Biodivy</name>
  <desc>Ferme bio en agriculture végane et MSV</desc>
    <url>https://wwoof.fr/de/host/13897</url>
</wpt>
<wpt lat="45.422297" lon="6.096785">
  <name>La Ferme de Plam</name>
  <desc>Ferme biologique certifiée bio située au coeur des Alpes </desc>
    <url>https://wwoof.fr/de/host/13895</url>
</wpt>
<wpt lat="44.7352381" lon="-0.5707538">
  <name>Domaine de Mauriet</name>
  <desc>Ferme biologique viticulture, apiculture et elevage ovin</desc>
    <url>https://wwoof.fr/de/host/13893</url>
</wpt>
<wpt lat="48.4202032" lon="7.0521865">
  <name>Le Champ du Chêne</name>
  <desc>Ferme en agriculture Bio, plantes médicinales et légumes transformés.</desc>
    <url>https://wwoof.fr/de/host/13892</url>
</wpt>
<wpt lat="48.251316" lon="-1.8638035">
  <name>Les Vaches à la Rue</name>
  <desc>Ferme laitière biologique avec transformation</desc>
    <url>https://wwoof.fr/de/host/13891</url>
</wpt>
<wpt lat="47.8604522" lon="-3.7840846">
  <name>La cabane maraichère</name>
  <desc>Ferme à Pont-Aven dans le Finistère</desc>
    <url>https://wwoof.fr/de/host/13888</url>
</wpt>
<wpt lat="44.9170007" lon="5.820572">
  <name>Graines de Thones</name>
  <desc>Ferme de moyenne montagne en Agriculture Biologique</desc>
    <url>https://wwoof.fr/de/host/13887</url>
</wpt>
<wpt lat="44.8026526" lon="-0.784503">
  <name>Les jardins d'Elliot</name>
  <desc>Ferme biologique maraichere a 20 minutes de Bordeaux et 20 minutes du bassin d'Arcachon</desc>
    <url>https://wwoof.fr/de/host/13884</url>
</wpt>
<wpt lat="45.8660178" lon="6.3320516">
  <name>Lait'able des Frangins </name>
  <desc>Petite ferme au cœur des Aravis avec transformation en glaces et fromages.</desc>
    <url>https://wwoof.fr/de/host/13878</url>
</wpt>
<wpt lat="43.060569" lon="1.293062">
  <name>La Ferme du troupeau</name>
  <desc>La ferme itinérante sur quatre pieds qui prend désormais racine</desc>
    <url>https://wwoof.fr/de/host/13876</url>
</wpt>
<wpt lat="42.7073234" lon="2.5291747">
  <name>La ferme en pagaille</name>
  <desc>Ferme Bio permaculture dans les Pyrénées Orientales</desc>
    <url>https://wwoof.fr/de/host/13875</url>
</wpt>
<wpt lat="43.9981525" lon="4.9480368">
  <name>Mas Ribelly</name>
  <desc>Ferme biologique certifiée en élevage de volaille et micro-brasserie </desc>
    <url>https://wwoof.fr/de/host/13873</url>
</wpt>
<wpt lat="43.149884" lon="-0.609743">
  <name>La ferme du Payssas</name>
  <desc>Ferme certifiée HVE transformation et vente à la ferme </desc>
    <url>https://wwoof.fr/de/host/13872</url>
</wpt>
<wpt lat="48.330302" lon="-4.078097">
  <name>La ferme de Kervel</name>
  <desc>Ferme d'élevage biologique bovine et fabrication de produits laitiers en circuits courts uniquement</desc>
    <url>https://wwoof.fr/de/host/13871</url>
</wpt>
<wpt lat="46.165534" lon="1.644743">
  <name>Les Myrtilles du Moulin Routhet</name>
  <desc>Production de petits fruits &amp; entretien de jardin</desc>
    <url>https://wwoof.fr/de/host/13862</url>
</wpt>
<wpt lat="47.5108589" lon="4.5289426">
  <name>Helixine</name>
  <desc>Ferme hélicicole en agriculture biologique située à Flavigny-sur-Ozerain</desc>
    <url>https://wwoof.fr/de/host/13856</url>
</wpt>
<wpt lat="46.2428851" lon="1.5251597">
  <name>La Fermette de Bridiers</name>
  <desc>Ferme Maraîchère en AB avec volailles</desc>
    <url>https://wwoof.fr/de/host/13854</url>
</wpt>
<wpt lat="48.854088" lon="-1.066879">
  <name>Ecolieu Les Jardins d'Hayden</name>
  <desc>Ecolieu en permaculture dans le bocage Virois</desc>
    <url>https://wwoof.fr/de/host/13853</url>
</wpt>
<wpt lat="48.7509241" lon="1.8262828">
  <name>Le jardin des partages</name>
  <desc>Jardin à vocation pédagogique au coeur des yvelines </desc>
    <url>https://wwoof.fr/de/host/13847</url>
</wpt>
<wpt lat="44.6296927" lon="5.0633904">
  <name>La source de Ganeden </name>
  <desc>Ancienne ferme en polyculture étant désormais un lieu de résidence non exploité commercialement </desc>
    <url>https://wwoof.fr/de/host/13845</url>
</wpt>
<wpt lat="43.708706" lon="0.322487">
  <name>La Demeure des Fleurs</name>
  <desc>Enjolivement et rénovation d'un domaine à des fins culturo-évènementielles et autonomes</desc>
    <url>https://wwoof.fr/de/host/13843</url>
</wpt>
<wpt lat="43.66183" lon="-1.217622">
  <name>Chez Jeremy Garcia </name>
  <desc>Jeune exploitation maraîchère bio 3000 m2 de serre et 1ha plein champs et quelques animaux également</desc>
    <url>https://wwoof.fr/de/host/13837</url>
</wpt>
<wpt lat="50.7981545" lon="2.4834831">
  <name>La Casseline</name>
  <desc>Lieu de rencontre et de production en ABC sur le flanc sud du mont Cassel</desc>
    <url>https://wwoof.fr/de/host/13836</url>
</wpt>
<wpt lat="49.448407" lon="-1.564494">
  <name>La Ferme des P'tits Cllos </name>
  <desc>Elevage de chèvres bio - transformation fromagère</desc>
    <url>https://wwoof.fr/de/host/13834</url>
</wpt>
<wpt lat="48.7806275" lon="5.0043967">
  <name>L'Herberie de la Saulx</name>
  <desc>Producteur de plantes aromatiques et médicinales</desc>
    <url>https://wwoof.fr/de/host/13830</url>
</wpt>
<wpt lat="47.3532757" lon="-1.0191602">
  <name>Ferme maraîchère goûts et Couleurs Olivier DAVY </name>
  <desc>Ferme maraîcher en permaculture production de fruits et légumes de saison et d'aromates diversifiés </desc>
    <url>https://wwoof.fr/de/host/13829</url>
</wpt>
<wpt lat="46.269407" lon="2.011526">
  <name>La chèvrerie de Braconnais </name>
  <desc>Élevage de chèvres et production de fromages, dans le respect du bien être de nos filles </desc>
    <url>https://wwoof.fr/de/host/13820</url>
</wpt>
<wpt lat="45.6315225" lon="0.8038436">
  <name>La yourte verte </name>
  <desc>Maraîchage / petits fruits inspirée de pratiques de   permaculture, agroecologie et maraîchage sur  </desc>
    <url>https://wwoof.fr/de/host/13818</url>
</wpt>
<wpt lat="48.5036074" lon="-0.8637696">
  <name>GAEC de la Colmont</name>
  <desc>Ferme biologique en Normandie : lait et confitures</desc>
    <url>https://wwoof.fr/de/host/13812</url>
</wpt>
<wpt lat="43.9474092" lon="5.7788857">
  <name>Le jardin Saint-Lazare</name>
  <desc>Exploitation semencière rustique sur 1 hectare en MSV. </desc>
    <url>https://wwoof.fr/de/host/13805</url>
</wpt>
<wpt lat="48.7001953" lon="-2.9863932">
  <name>Ferme poul ar ranet </name>
  <desc>Ferme biologique</desc>
    <url>https://wwoof.fr/de/host/13802</url>
</wpt>
<wpt lat="45.0336257" lon="4.5968248">
  <name>Les Jardins de la Goutte d'eau</name>
  <desc>Ferme familiale en polyculture et polyélevage</desc>
    <url>https://wwoof.fr/de/host/13799</url>
</wpt>
<wpt lat="49.2881558" lon="0.1417859">
  <name>Les Jardins de la Thillaye </name>
  <desc>Maraîchage sur Sol Vivant, Permaculture et Ecoconstruction au Cœur du Pays d'Auge</desc>
    <url>https://wwoof.fr/de/host/13795</url>
</wpt>
<wpt lat="47.825125" lon="-1.418299">
  <name>Les amis de plein grée </name>
  <desc>Ecolieu dans un cadre exceptionnel où l'amour de ce qui nous entoure est primordiale.</desc>
    <url>https://wwoof.fr/de/host/13793</url>
</wpt>
<wpt lat="44.7413631" lon="2.6381275">
  <name>La Ferme des Artis'ânes </name>
  <desc>Ferme en Agroforesterie en Nord-aveyron</desc>
    <url>https://wwoof.fr/de/host/13791</url>
</wpt>
<wpt lat="43.3025986" lon="-0.600574">
  <name>Le Sarrridé</name>
  <desc>Ferme biologique en Création</desc>
    <url>https://wwoof.fr/de/host/13790</url>
</wpt>
<wpt lat="47.8715978" lon="-0.8356951">
  <name>Ferme de la Basse-Beuvrie</name>
  <desc>Elevage de 60 chèvres avec transformation fromagère</desc>
    <url>https://wwoof.fr/de/host/13789</url>
</wpt>
<wpt lat="50.9254819" lon="2.2486504">
  <name>Ferme de la Haute Planche</name>
  <desc>Ferme paysanne, polyculture en traction animale et petit élevage</desc>
    <url>https://wwoof.fr/de/host/13788</url>
</wpt>
<wpt lat="49.369265" lon="0.25584">
  <name>L'arche et la Luciole</name>
  <desc>Maraichage sur sol vivant et ferme pédagogique à deux pas d'Honfleur</desc>
    <url>https://wwoof.fr/de/host/13787</url>
</wpt>
<wpt lat="46.1842715" lon="6.4162318">
  <name>Les champs des possibles</name>
  <desc>Ferme permaculture bio en haute-savoie</desc>
    <url>https://wwoof.fr/de/host/13785</url>
</wpt>
<wpt lat="44.6005183" lon="5.1487364">
  <name>La ferme Noyer</name>
  <desc>Ferme biologique en maraichage à 500m d'altitude</desc>
    <url>https://wwoof.fr/de/host/13784</url>
</wpt>
<wpt lat="45.448642" lon="1.199403">
  <name>Basil Laleman</name>
  <desc>Pépiniere fruits rares/ jardinage naturelle/ natural farming</desc>
    <url>https://wwoof.fr/de/host/13783</url>
</wpt>
<wpt lat="47.710972" lon="-2.447417">
  <name>Moulin de Lançay </name>
  <desc>Domaine de 11ha avec un moulin à eau, activités de boulangerie, potager, diverses activités </desc>
    <url>https://wwoof.fr/de/host/13774</url>
</wpt>
<wpt lat="48.770424" lon="-0.027507">
  <name>La maison des Favrils</name>
  <desc>Habitation avec verger,  potager et rucher sur un grand terrain</desc>
    <url>https://wwoof.fr/de/host/13771</url>
</wpt>
<wpt lat="46.655719" lon="6.0097736">
  <name>Le Chant des Hêtres</name>
  <desc>Lieu en voie d'autonomie au coeur du Jura</desc>
    <url>https://wwoof.fr/de/host/13770</url>
</wpt>
<wpt lat="46.54148" lon="0.121907">
  <name>La Ferme du Touchaud</name>
  <desc>Micro-ferme en maraîchage biologique diversifié</desc>
    <url>https://wwoof.fr/de/host/13769</url>
</wpt>
<wpt lat="48.058976" lon="-0.529253">
  <name>La Grange / Bertrand &amp; Natie</name>
  <desc>La Maison du Sureau : transforme Fleurs &amp; Baies de Sureau + Jardin en Permaculture + Forêt</desc>
    <url>https://wwoof.fr/de/host/13768</url>
</wpt>
<wpt lat="46.359922" lon="5.429468">
  <name>Le Maraicher de Bourcia</name>
  <desc>Ferme biologique, maraichage, brebis et poules pondeuses</desc>
    <url>https://wwoof.fr/de/host/13767</url>
</wpt>
<wpt lat="43.881012" lon="2.553603">
  <name>La ferme de Lardalié</name>
  <desc>Brebis, poulets et agri vivrière</desc>
    <url>https://wwoof.fr/de/host/13765</url>
</wpt>
<wpt lat="43.848832" lon="0.47479">
  <name>La ferme de Romane, EARL de Plaisance</name>
  <desc>Ferme en polyculture élevage Vigne, en Biodynamie et Agroforesterie (Gers)</desc>
    <url>https://wwoof.fr/de/host/13764</url>
</wpt>
<wpt lat="43.5921225" lon="3.2253469">
  <name>Le domaine de Pouzes</name>
  <desc>Ferme en plantes aromatiques et médicinales en Haut-Languedoc</desc>
    <url>https://wwoof.fr/de/host/13761</url>
</wpt>
<wpt lat="45.615759" lon="0.611751">
  <name>Les petits champs </name>
  <desc>Micro ferme en Maraîchage et ppam en Nord Dordogne </desc>
    <url>https://wwoof.fr/de/host/13758</url>
</wpt>
<wpt lat="46.404792" lon="5.583698">
  <name>TerraLuna</name>
  <desc>Ferme en maraichage et plantes médicinales certifiée Nature et progrès</desc>
    <url>https://wwoof.fr/de/host/13757</url>
</wpt>
<wpt lat="42.8464445" lon="2.311104">
  <name>Lou  Recatadou</name>
  <desc>&quot;Refuge&quot; en petite montagne pour retraite décroissante, solidaire &amp; militante</desc>
    <url>https://wwoof.fr/de/host/13756</url>
</wpt>
<wpt lat="46.269975" lon="2.695169">
  <name>La Garenne</name>
  <desc>Jardin-foret à ses débuts</desc>
    <url>https://wwoof.fr/de/host/13754</url>
</wpt>
<wpt lat="47.3250793" lon="-0.6394522">
  <name>Chateau de Plaisance</name>
  <desc>Domaine viticole en Agriculture biologique et biodynamique</desc>
    <url>https://wwoof.fr/de/host/13753</url>
</wpt>
<wpt lat="46.419396" lon="1.351731">
  <name>Les jardins de Chavignac</name>
  <desc>Maraîchage en traction animale et vente directe sur les marchés</desc>
    <url>https://wwoof.fr/de/host/13748</url>
</wpt>
<wpt lat="48.5660834" lon="-1.3438644">
  <name>La Ferme du Bois Rouland</name>
  <desc>Ferme en devenir - Boulangerie Paysanne</desc>
    <url>https://wwoof.fr/de/host/13747</url>
</wpt>
<wpt lat="47.9318198" lon="6.1717191">
  <name>Le champ du Brame</name>
  <desc>Ferme maraichère biologique en Haute Saône</desc>
    <url>https://wwoof.fr/de/host/13745</url>
</wpt>
<wpt lat="45.28703" lon="5.973681">
  <name>Oasis de la Graine Do Belledonne</name>
  <desc>Lieu de vie écologique, intergénérationnel, collaboratif, d’accueil. Expérimentations, permaculture.</desc>
    <url>https://wwoof.fr/de/host/13743</url>
</wpt>
<wpt lat="43.9096614" lon="4.7467663">
  <name>Paysan bio direct</name>
  <desc>Association pour la transmission des savoirs paysan </desc>
    <url>https://wwoof.fr/de/host/13739</url>
</wpt>
<wpt lat="46.646707" lon="3.1133099">
  <name>LA BEAUME</name>
  <desc>Eco-lieu avec potager et animaux et installation Arboriculture en cours</desc>
    <url>https://wwoof.fr/de/host/13738</url>
</wpt>
<wpt lat="44.9378356" lon="0.0549359">
  <name>Le domaine des 3 Saules</name>
  <desc>Ferme viticole en agriculture biologique au coeur du Périgord</desc>
    <url>https://wwoof.fr/de/host/13736</url>
</wpt>
<wpt lat="48.5906318" lon="0.0358502">
  <name>Les Sept Ponts</name>
  <desc>Collectif dans l'Orne</desc>
    <url>https://wwoof.fr/de/host/13735</url>
</wpt>
<wpt lat="48.56995" lon="1.90297">
  <name>FERME DE LA BUTTE ROUGE</name>
  <desc>Ferme biologique de 15 Ha en cours de conversion au maraichage, plantations de vergers, irrigation.</desc>
    <url>https://wwoof.fr/de/host/13732</url>
</wpt>
<wpt lat="43.628659" lon="6.650823">
  <name>Ferme Vivres</name>
  <desc>Ferme Vivres - Maraichage Artisanal et Résidence Coworking Permaculture Bien-être</desc>
    <url>https://wwoof.fr/de/host/13730</url>
</wpt>
<wpt lat="43.5338991" lon="-1.2455733">
  <name>Anaïen Lurra</name>
  <desc>Ferme Bio Ecocert à 20min côte basque </desc>
    <url>https://wwoof.fr/de/host/13728</url>
</wpt>
<wpt lat="48.381693" lon="0.544476">
  <name>Périgny </name>
  <desc>Le concept de ferme modèle du 18e siècle au 21e\ 18th c. model farm concept in the 21st century. </desc>
    <url>https://wwoof.fr/de/host/13726</url>
</wpt>
<wpt lat="44.538063" lon="5.426977">
  <name>GAEC de Montlahuc</name>
  <desc>Ferme permacole d'élevage ovin, bovin, et équin en montagne.</desc>
    <url>https://wwoof.fr/de/host/13723</url>
</wpt>
<wpt lat="42.8888362" lon="1.3947575">
  <name>Las Laous</name>
  <desc>Ferme aux cochons noirs plein air</desc>
    <url>https://wwoof.fr/de/host/13715</url>
</wpt>
<wpt lat="49.2244941" lon="-1.174916">
  <name>Le jardin des meules</name>
  <desc>Micro ferme en maraichage bio dans les marais du Cotentin</desc>
    <url>https://wwoof.fr/de/host/13714</url>
</wpt>
<wpt lat="44.8194508" lon="6.9441575">
  <name>Magic Alpage</name>
  <desc>Ferme de type paysanne en culture et élevage Biologique</desc>
    <url>https://wwoof.fr/de/host/13713</url>
</wpt>
<wpt lat="49.1516223" lon="0.0479488">
  <name>Les Jardins d'Archibald</name>
  <desc>Ferme biologique au coeur du Pays d'Auge</desc>
    <url>https://wwoof.fr/de/host/13706</url>
</wpt>
<wpt lat="44.1022801" lon="5.0768952">
  <name>Domaine Vintur</name>
  <desc>Domaine viticole biologique</desc>
    <url>https://wwoof.fr/de/host/13703</url>
</wpt>
<wpt lat="49.4368262" lon="3.1300455">
  <name>SCEA Les Jardins de l'Hermitage</name>
  <desc>Au sein du Tiers Lieu Hermitage, exploitation maraîchère AB d'1ha7</desc>
    <url>https://wwoof.fr/de/host/13701</url>
</wpt>
<wpt lat="48.689309" lon="-3.13011">
  <name>Éco-lieu Pen Ar Run (le bout du chemin) </name>
  <desc>Oasis/Éco-lieu/Ressourcement </desc>
    <url>https://wwoof.fr/de/host/13700</url>
</wpt>
<wpt lat="48.152326" lon="-3.366411">
  <name>Le moulin de kerveno</name>
  <desc>Projet d autonomie énergetique et d abondance potagère. </desc>
    <url>https://wwoof.fr/de/host/13697</url>
</wpt>
<wpt lat="45.7426822" lon="0.6915074">
  <name>La ferme du chêne vert</name>
  <desc>Pépinière en permaculture dans le périgord vert-limousin</desc>
    <url>https://wwoof.fr/de/host/13693</url>
</wpt>
<wpt lat="49.3924391" lon="0.1170341">
  <name>SCEA Les Roches Noires</name>
  <desc>Jardins Ecologique des Roches Noires</desc>
    <url>https://wwoof.fr/de/host/13692</url>
</wpt>
<wpt lat="43.7538582" lon="7.1616969">
  <name>Pierre Boijout</name>
  <desc>Production de Légumes Bio</desc>
    <url>https://wwoof.fr/de/host/13688</url>
</wpt>
<wpt lat="44.840012" lon="-0.369417">
  <name>Le Jardin des Intuitions</name>
  <desc>Pépinière d'arbres fruitiers, variétés anciennes et locales</desc>
    <url>https://wwoof.fr/de/host/13685</url>
</wpt>
<wpt lat="44.618189" lon="-0.0888831">
  <name>Lever de dormance</name>
  <desc>Centre de bien-être et connexion à la nature avec un projet de forêt jardin vivrier</desc>
    <url>https://wwoof.fr/de/host/13683</url>
</wpt>
<wpt lat="44.9319935" lon="-0.7340627">
  <name>La Bioferme</name>
  <desc>Ferme Bio située entre Bordeaux et Lacanau Océan</desc>
    <url>https://wwoof.fr/de/host/13682</url>
</wpt>
<wpt lat="46.430044" lon="2.082266">
  <name>RESSOURCE 'HERAT</name>
  <desc>Accueil paysans : mini ferme, jardin partagé, ateliers eco citoyens</desc>
    <url>https://wwoof.fr/de/host/13673</url>
</wpt>
<wpt lat="44.926658" lon="6.684833">
  <name>La Ferme des Alberts</name>
  <desc>Ferme diversifiée AB sur petite surface à 1400m d'altitude</desc>
    <url>https://wwoof.fr/de/host/13672</url>
</wpt>
<wpt lat="44.482991" lon="4.163877">
  <name>La ferme de Pomeyrol</name>
  <desc>Elevage agroé-cologique porcin. De la naissance à la vente directe exclusivement locale.</desc>
    <url>https://wwoof.fr/de/host/13671</url>
</wpt>
<wpt lat="48.1943685" lon="4.2131081">
  <name>Ferme de Courcelle</name>
  <desc>Maraichage et culture du CBD  en perma et en agriculture bio. Non travail du sol. Variétés anciennes</desc>
    <url>https://wwoof.fr/de/host/13670</url>
</wpt>
<wpt lat="44.10727" lon="3.784519">
  <name>Le Pont Neuf </name>
  <desc>Mas cévenol, ancien moulin en plein coeur des Cévennes </desc>
    <url>https://wwoof.fr/de/host/13668</url>
</wpt>
<wpt lat="44.054223" lon="0.364325">
  <name>Ferme Emmaüs Le Maquis</name>
  <desc>Communauté Emmaüs agricole</desc>
    <url>https://wwoof.fr/de/host/13666</url>
</wpt>
<wpt lat="47.812903" lon="-0.2744">
  <name>ACADEMIE POUR UNE ECOLOGIE INTEGRALE </name>
  <desc>Ferme maraîchère développée en permaculture</desc>
    <url>https://wwoof.fr/de/host/13662</url>
</wpt>
<wpt lat="44.530714" lon="5.037742">
  <name>Le Rourio</name>
  <desc>Toute petite ferme bio</desc>
    <url>https://wwoof.fr/de/host/13661</url>
</wpt>
<wpt lat="44.262315" lon="0.957687">
  <name>Au Bord du Ciel</name>
  <desc>Jardin ornemental/Prairie/Verger d'un demi hectare à l'entrée d'un village haut perché. Quercy Blanc</desc>
    <url>https://wwoof.fr/de/host/13658</url>
</wpt>
<wpt lat="43.287247" lon="-0.811573">
  <name>Ferme Rhizome</name>
  <desc>Projet : futur centre initiation permaculture et espace test agricole</desc>
    <url>https://wwoof.fr/de/host/13653</url>
</wpt>
<wpt lat="43.059841" lon="1.213959">
  <name>The Good Life </name>
  <desc>Conscious living space in the Pyrenees </desc>
    <url>https://wwoof.fr/de/host/13648</url>
</wpt>
<wpt lat="43.988852" lon="2.53543">
  <name>La framondié</name>
  <desc>Collectif : jardin en perma, verger, ecoconstruction, PPAM, transfo et artisanat</desc>
    <url>https://wwoof.fr/de/host/13647</url>
</wpt>
<wpt lat="45.63596" lon="1.598559">
  <name>Les jardins des vents d'ouest</name>
  <desc>Micro ferme de maraichage biologique</desc>
    <url>https://wwoof.fr/de/host/13645</url>
</wpt>
<wpt lat="44.920034" lon="-0.361672">
  <name>Le Jardin de la Dame aux Herbes</name>
  <desc>Jardin forêt, plantes sauvages et médicinales, permaculture et biodynamie</desc>
    <url>https://wwoof.fr/de/host/13644</url>
</wpt>
<wpt lat="48.480369" lon="-3.719218">
  <name>Les ateliers La Bigarrée</name>
  <desc>Micro-ferme, production de plante tinctoriale, atelier de transmission, Couture &amp; Plante.</desc>
    <url>https://wwoof.fr/de/host/13642</url>
</wpt>
<wpt lat="45.5213806" lon="-1.1072602">
  <name>Le Jardin de la Palmeraie</name>
  <desc>Culture et Apiculture</desc>
    <url>https://wwoof.fr/de/host/13640</url>
</wpt>
<wpt lat="45.901449" lon="3.654112">
  <name>Escargots des bois noirs</name>
  <desc>Elevage d'escargots dans le Puy de Dôme</desc>
    <url>https://wwoof.fr/de/host/13491</url>
</wpt>
<wpt lat="47.734437" lon="-2.668534">
  <name>La ferme de Ponsard</name>
  <desc>Fermette sud Bretagne jardins potagers, ornement, prairies, bois, étang, poulailler sur 3ha en bio </desc>
    <url>https://wwoof.fr/de/host/13485</url>
</wpt>
<wpt lat="44.102261" lon="3.128296">
  <name>Massediau</name>
  <desc>Ferme Bio maraichage</desc>
    <url>https://wwoof.fr/de/host/13478</url>
</wpt>
<wpt lat="45.131119" lon="4.678981">
  <name>La ferme des animaux</name>
  <desc>Ferme en réhabilitation</desc>
    <url>https://wwoof.fr/de/host/13477</url>
</wpt>
<wpt lat="48.826365" lon="6.704113">
  <name>Fermes des 4 Roues</name>
  <desc>Petite structure familiale polyvalente</desc>
    <url>https://wwoof.fr/de/host/13474</url>
</wpt>
<wpt lat="46.324878" lon="0.0292737">
  <name>L'imaginarium</name>
  <desc>Lieu artistique écologique sur lequel se cotoient Culture et Agriculture en Deux-Sèvres</desc>
    <url>https://wwoof.fr/de/host/13473</url>
</wpt>
<wpt lat="46.125645" lon="4.476821">
  <name>La Ferme Vers le Bois</name>
  <desc>Ferme biologique maraichage poule pondeuse</desc>
    <url>https://wwoof.fr/de/host/13469</url>
</wpt>
<wpt lat="43.942838" lon="3.897928">
  <name>La  Gardiolle</name>
  <desc>Ferme pédagogique et d'insertion</desc>
    <url>https://wwoof.fr/de/host/13459</url>
</wpt>
<wpt lat="42.7575395" lon="9.4649562">
  <name>Casarella</name>
  <desc>Agriculture biologique pour notre propre consommation et celle de notre famille</desc>
    <url>https://wwoof.fr/de/host/13457</url>
</wpt>
<wpt lat="47.310871" lon="-3.0802299">
  <name>Les Champs du Ruisseau</name>
  <desc>Micro-ferme collective, écologique, gourmande &amp; conviviale</desc>
    <url>https://wwoof.fr/de/host/13453</url>
</wpt>
<wpt lat="43.387109" lon="2.9466748">
  <name>Domaine de Gabelas</name>
  <desc>Domaine viticole, polyculture-élevage BIO</desc>
    <url>https://wwoof.fr/de/host/13448</url>
</wpt>
<wpt lat="42.908083" lon="1.1451">
  <name>Le gîte des fleurs / Cabanas de Flores </name>
  <desc>Gîte nature entouré de forêt, dans les montagnes</desc>
    <url>https://wwoof.fr/de/host/13446</url>
</wpt>
<wpt lat="46.844693" lon="-2.086846">
  <name>La ferme de l'Avocette Rieuse</name>
  <desc>Elevage de vaches maraichines et de chevaux camargues en Marais Breton</desc>
    <url>https://wwoof.fr/de/host/13445</url>
</wpt>
<wpt lat="48.7529979" lon="3.9913928">
  <name>Chez ClaudYvans* PaysArt !</name>
  <desc>JARDIN PoétiQ ! avec des buttes en Perma culture </desc>
    <url>https://wwoof.fr/de/host/13444</url>
</wpt>
<wpt lat="43.117317" lon="-0.864183">
  <name>Ma mini maison dans les bois</name>
  <desc>Construction mini maison paille - vivre en autonomie </desc>
    <url>https://wwoof.fr/de/host/13436</url>
</wpt>
<wpt lat="44.7997643" lon="5.1416999">
  <name>Ferme Brasserie des Trois Becs</name>
  <desc>Paysans-Brasseurs Bio au coeur du Vercors !</desc>
    <url>https://wwoof.fr/de/host/13434</url>
</wpt>
<wpt lat="46.2969055" lon="5.8758974">
  <name>La Ferme de l'Enquerne</name>
  <desc>Ferme biologique élevage et ferme pédagogique dans le Haut-Jura</desc>
    <url>https://wwoof.fr/de/host/13432</url>
</wpt>
<wpt lat="47.919468" lon="-4.323736">
  <name>Les Tisanes de Ker-Heol</name>
  <desc>Ferme biologique au coeur de la baie d'Audierne. Plantes aromatiques et médicinales PPAM.</desc>
    <url>https://wwoof.fr/de/host/13430</url>
</wpt>
<wpt lat="48.484354" lon="-2.2016969">
  <name>La yourte à la ferme</name>
  <desc>Micro ferme d'élevage diversifiée et potager </desc>
    <url>https://wwoof.fr/de/host/13429</url>
</wpt>
<wpt lat="43.088925" lon="1.45733">
  <name>La ferme Decibêle</name>
  <desc>Élevage caprin avec transformation fromagère en agriculture biologique</desc>
    <url>https://wwoof.fr/de/host/13424</url>
</wpt>
<wpt lat="43.143806" lon="1.307123">
  <name>La Ferme du Ruisseau de Montbrun</name>
  <desc>Ferme Arboricole de 25h, certifiée Bio depuis 20 ans </desc>
    <url>https://wwoof.fr/de/host/13423</url>
</wpt>
<wpt lat="43.8334097" lon="5.1699537">
  <name>Domaine Olivier</name>
  <desc>Olive &amp; Lavender farm in the Luberon, Provence</desc>
    <url>https://wwoof.fr/de/host/13422</url>
</wpt>
<wpt lat="47.4060991" lon="-0.6317789">
  <name>Fraxinus sp</name>
  <desc>Pépinière de végétaux d'origine sauvage, en traction animale et génie écologique</desc>
    <url>https://wwoof.fr/de/host/13421</url>
</wpt>
<wpt lat="45.1926552" lon="-0.933435">
  <name>La ferme maraîchère LES CHAMPS BIO</name>
  <desc>Ferme biologique </desc>
    <url>https://wwoof.fr/de/host/13419</url>
</wpt>
<wpt lat="47.7487568" lon="0.8110806">
  <name>Le Grand Gué</name>
  <desc>Restauration d'un Manoir du 13e siècle en agriculture paysanne</desc>
    <url>https://wwoof.fr/de/host/13415</url>
</wpt>
<wpt lat="46.343971" lon="6.699121">
  <name>Les Rouquines </name>
  <desc>Ferme bovin AB certifiée, sans céréales, fabrication produits laitiers, fromages; et volailles </desc>
    <url>https://wwoof.fr/de/host/13412</url>
</wpt>
<wpt lat="43.903899" lon="-0.889678">
  <name>O ptit potager </name>
  <desc>Ferme biologique de légumes diversifiés </desc>
    <url>https://wwoof.fr/de/host/13409</url>
</wpt>
<wpt lat="45.1890582" lon="2.7001102">
  <name>La ferme de Mr Loubeyre </name>
  <desc>Ferme sans engrais et sans pesticides </desc>
    <url>https://wwoof.fr/de/host/13405</url>
</wpt>
<wpt lat="48.639313" lon="-0.512251">
  <name>Les Minières</name>
  <desc>Jardins maraîchers ouverts au public et centre de pratiques artistiques - entre deux forêts </desc>
    <url>https://wwoof.fr/de/host/13404</url>
</wpt>
<wpt lat="47.0854082" lon="-1.6141416">
  <name>CARRES VERTS DU LAC</name>
  <desc>MARAICHAGE BIO PETITE STRUCTURE</desc>
    <url>https://wwoof.fr/de/host/13400</url>
</wpt>
<wpt lat="45.02256" lon="4.503839">
  <name>La ferme du Sauze</name>
  <desc>Ferme AB et nature et progrès en Ardèche</desc>
    <url>https://wwoof.fr/de/host/13399</url>
</wpt>
<wpt lat="44.5000659" lon="5.996684">
  <name>Les Mur'Mûres d'Isabelle</name>
  <desc>Ferme biologique (permaculture) de petits fruits rouges</desc>
    <url>https://wwoof.fr/de/host/13398</url>
</wpt>
<wpt lat="48.450821" lon="-4.248437">
  <name>La prairie nourricière</name>
  <desc>Plantes exotiques, médicinales et comestibles</desc>
    <url>https://wwoof.fr/de/host/12373</url>
</wpt>
<wpt lat="44.1145917" lon="1.2636216">
  <name>Jardin élément terre</name>
  <desc>Maraîchage biologique sur sols vivants</desc>
    <url>https://wwoof.fr/de/host/12369</url>
</wpt>
<wpt lat="47.770125" lon="0.952241">
  <name>Le potager associatif de Zone i</name>
  <desc>Potager associatif sur le site d'un Moulin au coeur du Loir et Cher</desc>
    <url>https://wwoof.fr/de/host/12367</url>
</wpt>
<wpt lat="45.3119639" lon="1.3489998">
  <name>Le Pêcher Sauvage</name>
  <desc>Collectif, verger, lieu d'acceuil, dans un esprit permacole </desc>
    <url>https://wwoof.fr/de/host/12366</url>
</wpt>
<wpt lat="46.9689948" lon="3.5880946">
  <name>Florae Schola</name>
  <desc>Production de plantes aromatiques et médicinales dans la Nievre</desc>
    <url>https://wwoof.fr/de/host/12365</url>
</wpt>
<wpt lat="43.5669069" lon="-0.8855589">
  <name>La ferme Lahourie</name>
  <desc>Ferme maraichere biologique dans le sud des  Landes</desc>
    <url>https://wwoof.fr/de/host/12358</url>
</wpt>
<wpt lat="43.4994058" lon="0.9266736">
  <name>Earl Duval. Les moines de la graine perdue . </name>
  <desc>Conversion bio. Agriculteur de père en fils, nouvelle culture  chanvre .</desc>
    <url>https://wwoof.fr/de/host/12357</url>
</wpt>
<wpt lat="48.3592631" lon="7.3190039">
  <name>Ferme Ebba</name>
  <desc>Ferme de moyenne montagne centrée sur le travail avec le cheval de trait</desc>
    <url>https://wwoof.fr/de/host/12353</url>
</wpt>
<wpt lat="44.879457" lon="4.44007">
  <name>Les pizes</name>
  <desc>Domaine biologique en permaculture et châtaigneraie</desc>
    <url>https://wwoof.fr/de/host/11333</url>
</wpt>
<wpt lat="46.2649512" lon="5.3462283">
  <name>Les Jardins de Lunant</name>
  <desc>Ferme permaculturelle en Bresse-Revermont</desc>
    <url>https://wwoof.fr/de/host/11331</url>
</wpt>
<wpt lat="43.3016661" lon="0.6887958">
  <name>Ferme de la Gesse </name>
  <desc>Ferme Permaculturelle éco lieu partagé </desc>
    <url>https://wwoof.fr/de/host/11330</url>
</wpt>
<wpt lat="43.407949" lon="1.100088">
  <name>Oasis de Poul'Art</name>
  <desc>Tiers-lieu agricole et pédagogique multiactivité : perma, resto bio, taille et soin des arbres</desc>
    <url>https://wwoof.fr/de/host/11328</url>
</wpt>
<wpt lat="46.16706" lon="3.80522">
  <name>Chez GJé</name>
  <desc>Haies fruitières, vergers, poules pondeuses, petits fruits, Construction éco-logique.</desc>
    <url>https://wwoof.fr/de/host/11327</url>
</wpt>
<wpt lat="42.7758276" lon="9.3401921">
  <name>Couvent San Francescu</name>
  <desc>Jardin aromatique et mise en route d'un potager</desc>
    <url>https://wwoof.fr/de/host/11317</url>
</wpt>
<wpt lat="44.2938685" lon="3.8995615">
  <name>L'Adrech, micro-ferme collective en Cévennes</name>
  <desc>Micro-ferme collective en Cévennes</desc>
    <url>https://wwoof.fr/de/host/11316</url>
</wpt>
<wpt lat="45.784718" lon="1.283663">
  <name>Les Jardins du Vivant</name>
  <desc>Ferme maraichere et agroforesterie Biologique au bord de Limoges</desc>
    <url>https://wwoof.fr/de/host/11315</url>
</wpt>
<wpt lat="43.2688126" lon="6.1048199">
  <name>St Martin les Oliviers</name>
  <desc>Petite entreprise paysanne au cœur de la Provence</desc>
    <url>https://wwoof.fr/de/host/11314</url>
</wpt>
<wpt lat="48.5969183" lon="6.3350286">
  <name>Les Jardins Rocamboles</name>
  <desc>Small organic farm in north east France</desc>
    <url>https://wwoof.fr/de/host/11313</url>
</wpt>
<wpt lat="44.2142646" lon="2.2037263">
  <name>Les légumes des Cailleries </name>
  <desc>Maraichage biologique au pays des 100 vallées</desc>
    <url>https://wwoof.fr/de/host/11307</url>
</wpt>
<wpt lat="43.7861059" lon="7.3379683">
  <name>Ferme de la Sousta</name>
  <desc>Ferme biologique en maraichage diversifié sur les principes de la permaculture</desc>
    <url>https://wwoof.fr/de/host/11303</url>
</wpt>
<wpt lat="44.6145971" lon="5.4474633">
  <name>Les jardins du muscardin</name>
  <desc>Maraichage bio en traction animale et arboriculteur</desc>
    <url>https://wwoof.fr/de/host/11299</url>
</wpt>
<wpt lat="46.0840172" lon="6.1596726">
  <name>Au champ des Grillons </name>
  <desc>Ferme maraîchère biologique certifiée sur le Salève </desc>
    <url>https://wwoof.fr/de/host/10718</url>
</wpt>
<wpt lat="44.041345" lon="2.564654">
  <name>Les jardins de Réquista</name>
  <desc>Jardins maraîchers bio certifiés dans l'Aveyron</desc>
    <url>https://wwoof.fr/de/host/10716</url>
</wpt>
<wpt lat="45.4213776" lon="-1.0792552">
  <name>Les jardins de la colline</name>
  <desc>Elevage de chèvres et poneys</desc>
    <url>https://wwoof.fr/de/host/10713</url>
</wpt>
<wpt lat="48.390048" lon="-1.343266">
  <name>La ferme de Benoît LE DUC </name>
  <desc>Ferme laitière bio bretonne </desc>
    <url>https://wwoof.fr/de/host/10709</url>
</wpt>
<wpt lat="45.439484" lon="5.595496">
  <name>Les Paniers de l'Ainan</name>
  <desc>Ferme, agro écologique, MSV, sur la commune de Massieu</desc>
    <url>https://wwoof.fr/de/host/10708</url>
</wpt>
<wpt lat="50.2370914" lon="1.6667996">
  <name>Casaco</name>
  <desc>Ecolieu permacole entre terre et mer</desc>
    <url>https://wwoof.fr/de/host/10703</url>
</wpt>
<wpt lat="46.2394001" lon="6.6522894">
  <name>Les Jardins de L'abbaye </name>
  <desc>Jardin de 5000 m2 en agriculture raisonnée en Haute-Savoie </desc>
    <url>https://wwoof.fr/de/host/10700</url>
</wpt>
<wpt lat="48.8880188" lon="0.3478248">
  <name>Les Légumes du Sap</name>
  <desc>Maraîchage biologique et naturel</desc>
    <url>https://wwoof.fr/de/host/10698</url>
</wpt>
<wpt lat="47.1995099" lon="-1.988691">
  <name>La Frérèche</name>
  <desc>Maraîchage bio sur sol vivant, élevage de moutons et apiculture</desc>
    <url>https://wwoof.fr/de/host/10697</url>
</wpt>
<wpt lat="47.4955359" lon="-2.040643">
  <name>La ferme de Ker Madeleine</name>
  <desc>Ferme biologique en maraîchage membre du Mouvement Emmaüs</desc>
    <url>https://wwoof.fr/de/host/10696</url>
</wpt>
<wpt lat="43.4522053" lon="5.862294">
  <name>Bastide provençale dans la Coline </name>
  <desc>Famille très attachée à l'esprit de communauté et de partage. Permaculture, aquaponie.</desc>
    <url>https://wwoof.fr/de/host/10692</url>
</wpt>
<wpt lat="48.0380725" lon="6.1827725">
  <name>Les jardins du presbytère </name>
  <desc>Ancien presbytère de la plaine des Vosges. Culture de PPAM et petits fruits.</desc>
    <url>https://wwoof.fr/de/host/10688</url>
</wpt>
<wpt lat="48.0517401" lon="-3.6268152">
  <name>Chez Popote et Potager </name>
  <desc>Vie au Potager, création de recettes , mise en conserves . Youtubeurs et auteurs.</desc>
    <url>https://wwoof.fr/de/host/10687</url>
</wpt>
<wpt lat="45.7202513" lon="6.0750605">
  <name>Le verger de l'Epine</name>
  <desc>Production de fruits dans le parc naturel des Bauges en Savoie</desc>
    <url>https://wwoof.fr/de/host/10686</url>
</wpt>
<wpt lat="45.229786" lon="4.5362537">
  <name>Les portes de la mer</name>
  <desc>Lieu d'accueil thérapeutique sur les flancs du Pilat</desc>
    <url>https://wwoof.fr/de/host/10685</url>
</wpt>
<wpt lat="45.5753088" lon="5.5340118">
  <name>Les vergers du panda</name>
  <desc>Fruits rouges bio en Nord Isère</desc>
    <url>https://wwoof.fr/de/host/10684</url>
</wpt>
<wpt lat="48.032362" lon="-3.490045">
  <name>GAEC de la ferme de Junglenn</name>
  <desc>Maraîchage biologique non mécanisé, projet de traction animale équine, et poules pondeuses </desc>
    <url>https://wwoof.fr/de/host/10300</url>
</wpt>
<wpt lat="43.8332828" lon="0.7821562">
  <name>Le Nailhé </name>
  <desc>Culture de Plantes médicinales biologiques pour huiles essentielles</desc>
    <url>https://wwoof.fr/de/host/10298</url>
</wpt>
<wpt lat="45.649109" lon="0.799821">
  <name>Les Spriggans de Sufrion</name>
  <desc>Ferme en création, diversifiée menée en agroécologie</desc>
    <url>https://wwoof.fr/de/host/10297</url>
</wpt>
<wpt lat="45.039792" lon="4.578704">
  <name>Ferme de Chimbaud, les P'TisÂnes </name>
  <desc>Production et transformation de PPAM,  châtaignes AOP d'Ardèche, raisin de table, maraîchage.</desc>
    <url>https://wwoof.fr/de/host/10294</url>
</wpt>
<wpt lat="43.9391109" lon="2.582445">
  <name>La Ferme Joyeuse</name>
  <desc>Permaculture à l'Ecovillage Les 3 sources, au sud de l'Aveyron</desc>
    <url>https://wwoof.fr/de/host/10288</url>
</wpt>
<wpt lat="45.143492" lon="2.832699">
  <name>Brugeiroux</name>
  <desc>Ferme biologique certifiée au centre du Cantal</desc>
    <url>https://wwoof.fr/de/host/10284</url>
</wpt>
<wpt lat="47.733514" lon="-2.684338">
  <name>Association ferme collaborative de sclair</name>
  <desc>Ferme associative dans le Morbihan en perma-culture</desc>
    <url>https://wwoof.fr/de/host/10283</url>
</wpt>
<wpt lat="43.058982" lon="2.6031939">
  <name>L'auzine</name>
  <desc>Petite ferme en installation dans les Corbières</desc>
    <url>https://wwoof.fr/de/host/10281</url>
</wpt>
<wpt lat="44.987117" lon="3.45926">
  <name>GAEC TERRE ET MERES</name>
  <desc>Maraîchage biologique et élevage canin en haute-loire</desc>
    <url>https://wwoof.fr/de/host/10280</url>
</wpt>
<wpt lat="43.2896004" lon="0.7312721">
  <name>La ferme de la barthe</name>
  <desc>Pratique d'une agriculture biologique et respectueuse du vivant</desc>
    <url>https://wwoof.fr/de/host/10278</url>
</wpt>
<wpt lat="43.847464" lon="2.63408">
  <name>Moulin d'Orient</name>
  <desc>Petite ferme maraichère en Aveyron, à la frontière du Tarn</desc>
    <url>https://wwoof.fr/de/host/10277</url>
</wpt>
<wpt lat="44.263178" lon="2.081216">
  <name>Le Jardin des Grenouilles</name>
  <desc>Jardin Maraicher Bio / Légumes, Aromates et Fleurs à couper</desc>
    <url>https://wwoof.fr/de/host/10275</url>
</wpt>
<wpt lat="46.372542" lon="5.23196">
  <name>Le jardin des éclachats</name>
  <desc>Maraichage et pépinière en Bresse</desc>
    <url>https://wwoof.fr/de/host/10264</url>
</wpt>
<wpt lat="43.6644415" lon="2.4540409">
  <name>La Grange </name>
  <desc>Ferme familiale et artistique </desc>
    <url>https://wwoof.fr/de/host/10263</url>
</wpt>
<wpt lat="45.5763689" lon="2.8176389">
  <name>GAEC du haut plateau</name>
  <desc>Ferme de montagne, élevage de Ferrandaises. </desc>
    <url>https://wwoof.fr/de/host/10261</url>
</wpt>
<wpt lat="44.571463" lon="2.616032">
  <name>Le verger d'Isa</name>
  <desc>Exploitation fruitière biologique certifiée au coeur de l'Aveyron</desc>
    <url>https://wwoof.fr/de/host/10260</url>
</wpt>
<wpt lat="43.6311634" lon="1.3975792">
  <name>ESAT Maniban</name>
  <desc>Atelier ESAT en maraichage bio à 2 pas de Toulouse</desc>
    <url>https://wwoof.fr/de/host/10259</url>
</wpt>
<wpt lat="45.1378447" lon="5.373953">
  <name>La ferme de Joy's &amp; Jazzou</name>
  <desc>Lieu d'accueil &amp; de vie à la campagne </desc>
    <url>https://wwoof.fr/de/host/10258</url>
</wpt>
<wpt lat="44.234512" lon="0.766868">
  <name>Le jardin de Camélico</name>
  <desc>Maraichage biologique sur sol vivant</desc>
    <url>https://wwoof.fr/de/host/10257</url>
</wpt>
<wpt lat="41.9961268" lon="8.8142264">
  <name>L'Ortu di Ardia Piaria</name>
  <desc>Eco lieu Paysan, adhérant au mode de vie &quot; Nature &amp; Progrès&quot;</desc>
    <url>https://wwoof.fr/de/host/10256</url>
</wpt>
<wpt lat="44.756154" lon="6.0062239">
  <name>Charolais Dallas</name>
  <desc>Élevage de bovins allaitants et petite cultures maraîchère en Agriculture Biologique</desc>
    <url>https://wwoof.fr/de/host/10255</url>
</wpt>
<wpt lat="44.0057959" lon="2.801475">
  <name>La ferme de Bouniols </name>
  <desc>Ferme biologique paysanne et à échelle humaine où vivent 4 générations</desc>
    <url>https://wwoof.fr/de/host/10254</url>
</wpt>
<wpt lat="43.6358907" lon="3.1082956">
  <name>Jardinons Ensemble à Clairac</name>
  <desc>Création jardin botanique, potager en permaculture</desc>
    <url>https://wwoof.fr/de/host/10251</url>
</wpt>
<wpt lat="46.909113" lon="-1.3800204">
  <name>Jardin des vagabondes</name>
  <desc>Jardin biologique familial, refuge de biodiversité</desc>
    <url>https://wwoof.fr/de/host/10088</url>
</wpt>
<wpt lat="44.8955728" lon="0.068817">
  <name>La ferme sauvage </name>
  <desc>Ferme vivrière la ferme sauvage </desc>
    <url>https://wwoof.fr/de/host/10087</url>
</wpt>
<wpt lat="44.289033" lon="2.144118">
  <name>Terre étoiles</name>
  <desc>Lieu de ressourcement</desc>
    <url>https://wwoof.fr/de/host/10086</url>
</wpt>
<wpt lat="44.0658622" lon="-1.2092236">
  <name>La ferme de Jougaret</name>
  <desc>Permaculture, lombriculture et compostage</desc>
    <url>https://wwoof.fr/de/host/10085</url>
</wpt>
<wpt lat="45.4334699" lon="1.124291">
  <name>La forge de beausoleil</name>
  <desc>Polyculture élevage  à l'ancienne: vaches, chevres, chevaux, maraichage...</desc>
    <url>https://wwoof.fr/de/host/10083</url>
</wpt>
<wpt lat="42.48833" lon="2.66792">
  <name>Mas Tibhérine</name>
  <desc>Ancienne bergerie dans les pyrénées en plein nature </desc>
    <url>https://wwoof.fr/de/host/10081</url>
</wpt>
<wpt lat="46.397466" lon="4.775055">
  <name>Les Jardins du Vernay</name>
  <desc>Ferme biologique : légumes sur sol vivant, fruits et œufs</desc>
    <url>https://wwoof.fr/de/host/10073</url>
</wpt>
<wpt lat="45.831691" lon="1.765124">
  <name>Les Ânes de Vassivière</name>
  <desc>Elevage d'ânes de randonnée</desc>
    <url>https://wwoof.fr/de/host/10072</url>
</wpt>
<wpt lat="45.092738" lon="0.447985">
  <name>Claire L'Happycultrice</name>
  <desc>Apiculture biologique en Dordogne</desc>
    <url>https://wwoof.fr/de/host/10057</url>
</wpt>
<wpt lat="44.3935401" lon="-0.0307284">
  <name>La Cie Boulette</name>
  <desc>Ferme maraichère bio en construction </desc>
    <url>https://wwoof.fr/de/host/10051</url>
</wpt>
<wpt lat="45.645315" lon="4.7302975">
  <name>Ferme du Bois Manié</name>
  <desc>Production de framboises en agriculture biologique &amp; démarrage projet de maraichage </desc>
    <url>https://wwoof.fr/de/host/10039</url>
</wpt>
<wpt lat="44.42066" lon="0.802404">
  <name>Ferme de lafontasse</name>
  <desc>Ferme de fruitier et maraîchage d été </desc>
    <url>https://wwoof.fr/de/host/10038</url>
</wpt>
<wpt lat="43.7088441" lon="-0.8318815">
  <name>Les jardins de Berdis</name>
  <desc>Verger agroécologique diversifié AB au coeur de la Chalosse (Landes)</desc>
    <url>https://wwoof.fr/de/host/10036</url>
</wpt>
<wpt lat="48.6822717" lon="-4.0098373">
  <name>Savez Vous Planter Les Choux ?</name>
  <desc>Ferme Biologique dans le Finistère nord en vente directe </desc>
    <url>https://wwoof.fr/de/host/10035</url>
</wpt>
<wpt lat="46.882943" lon="0.322029">
  <name>Les Ruchers du Grand Champ</name>
  <desc>Ferme apicole et céréalière BIO</desc>
    <url>https://wwoof.fr/de/host/10019</url>
</wpt>
<wpt lat="43.722808" lon="1.136209">
  <name>Aux Thi'Légumes, etc.</name>
  <desc>Démarrage Microferme Bio, Maraichage en permaculture </desc>
    <url>https://wwoof.fr/de/host/10000</url>
</wpt>
<wpt lat="48.4927553" lon="4.3123079">
  <name>Le jardin du Boukarou</name>
  <desc>Jardin nourissier sur 6000 m2 en permaculture.</desc>
    <url>https://wwoof.fr/de/host/9829</url>
</wpt>
<wpt lat="44.373899" lon="3.699353">
  <name>Fournil de Fraissinet</name>
  <desc>Culture de céréales, mouture de farine, transfo en pain bio, chevaux, jardins</desc>
    <url>https://wwoof.fr/de/host/9828</url>
</wpt>
<wpt lat="43.737428" lon="3.195122">
  <name>Les terrasses deBaudes</name>
  <desc>Maraichage à l'ancienne, en milieu forestier, 0% pesticides</desc>
    <url>https://wwoof.fr/de/host/9827</url>
</wpt>
<wpt lat="45.092414" lon="-0.490432">
  <name>Ferme du grand Barrail</name>
  <desc>Ferme pédagogique en plein essor</desc>
    <url>https://wwoof.fr/de/host/9826</url>
</wpt>
<wpt lat="47.9978126" lon="2.3697058">
  <name>Le jardin des Sablons</name>
  <desc>Ferme en maraichage bio</desc>
    <url>https://wwoof.fr/de/host/9825</url>
</wpt>
<wpt lat="49.026765" lon="-1.333533">
  <name>Ferme de la Prioudière</name>
  <desc>Ferme et fromagerie biologique herbagère </desc>
    <url>https://wwoof.fr/de/host/9824</url>
</wpt>
<wpt lat="42.9485621" lon="-0.172061">
  <name>Ferme de Jouanlane</name>
  <desc>Ferme biologique en Maraîchage de montagne et Fleurs comestibles</desc>
    <url>https://wwoof.fr/de/host/9823</url>
</wpt>
<wpt lat="48.107894" lon="-3.0311">
  <name>La Ferme Bio de Lintever</name>
  <desc>Ferme végétale et bio au cœur de la Bretagne</desc>
    <url>https://wwoof.fr/de/host/9822</url>
</wpt>
<wpt lat="44.48609" lon="4.1540169">
  <name>Chabroulière</name>
  <desc>Jardin potager familial naturel</desc>
    <url>https://wwoof.fr/de/host/9821</url>
</wpt>
<wpt lat="49.561085" lon="0.726755">
  <name>Les Jardins de Brotonne !</name>
  <desc>Ferme biologique en Vallée de Seine</desc>
    <url>https://wwoof.fr/de/host/9820</url>
</wpt>
<wpt lat="47.863948" lon="-2.2321054">
  <name>Les Orionides</name>
  <desc>Lieu dirigé vers l'autonomie, le Kundalini Yoga, l'agriculture biologique et l'innovation. </desc>
    <url>https://wwoof.fr/de/host/9817</url>
</wpt>
<wpt lat="48.6750396" lon="0.7961736">
  <name>Ferme du Jardin à la Bouche</name>
  <desc>Ferme certifier en poly-élevage maraîchage et poules pondeuse.</desc>
    <url>https://wwoof.fr/de/host/9816</url>
</wpt>
<wpt lat="47.9768885" lon="-1.9159047">
  <name>FLORAMAZETTE</name>
  <desc>FLOWER FARM in Brittany</desc>
    <url>https://wwoof.fr/de/host/9814</url>
</wpt>
<wpt lat="45.826821" lon="2.288539">
  <name>Le moulin Merlin</name>
  <desc>Moulin  en pleine nature </desc>
    <url>https://wwoof.fr/de/host/9813</url>
</wpt>
<wpt lat="46.771044" lon="4.163283">
  <name>Planthul</name>
  <desc>Ferme en agriculture paysanne</desc>
    <url>https://wwoof.fr/de/host/9812</url>
</wpt>
<wpt lat="43.723229" lon="1.886879">
  <name>Le chêne d´en Pontier</name>
  <desc>Ferme agro-écologique en polyculture-élevage</desc>
    <url>https://wwoof.fr/de/host/9811</url>
</wpt>
<wpt lat="47.23079" lon="3.9199111">
  <name>La Petite Ferme</name>
  <desc>Ferme maraîchère au coeur du Morvan</desc>
    <url>https://wwoof.fr/de/host/9808</url>
</wpt>
<wpt lat="47.938071" lon="-2.8894975">
  <name>Pépinière ô naturel</name>
  <desc>Pépinière certifiée : production de plants utile (comestibles, PPAM, mélifères, couvre-sols)</desc>
    <url>https://wwoof.fr/de/host/9806</url>
</wpt>
<wpt lat="46.927317" lon="-1.968155">
  <name>Jardin de la Guillemardière</name>
  <desc>En transition vers l'autonomie </desc>
    <url>https://wwoof.fr/de/host/9804</url>
</wpt>
<wpt lat="47.869067" lon="-1.183466">
  <name>Earth Of Legends</name>
  <desc>Initiations en permaculture et vie en communauté, régie par des valeurs permaculturelles</desc>
    <url>https://wwoof.fr/de/host/9803</url>
</wpt>
<wpt lat="44.047599" lon="6.59411">
  <name>Les zamzeureuses</name>
  <desc>Elevage brebis, chèvres, chevaux et cultures bio en haute montagne</desc>
    <url>https://wwoof.fr/de/host/9800</url>
</wpt>
<wpt lat="48.917731" lon="2.5781489">
  <name>Ferme de Coubron </name>
  <desc>Ferme biologique </desc>
    <url>https://wwoof.fr/de/host/9797</url>
</wpt>
<wpt lat="43.647221" lon="2.567552">
  <name>Ferme de Moulin Haut</name>
  <desc>Aimé Paysan Meunerie &amp; Fabienne Apicultrice Animatrice</desc>
    <url>https://wwoof.fr/de/host/9790</url>
</wpt>
<wpt lat="46.02635406" lon="4.64899463">
  <name>Les 4 Soeurs</name>
  <desc>Vigneron certifié AB en Beaujolais (Moulin à Vent)</desc>
    <url>https://wwoof.fr/de/host/9789</url>
</wpt>
<wpt lat="43.0136448" lon="1.0312592">
  <name>La Fruiterie de Peyort</name>
  <desc>Arboriculture, petits fruits, légumes en Ariège</desc>
    <url>https://wwoof.fr/de/host/9788</url>
</wpt>
<wpt lat="44.5638805" lon="2.4319254">
  <name>Ferme de Cabessières</name>
  <desc>Petite Ferme en polyculture et élevage caprin  </desc>
    <url>https://wwoof.fr/de/host/9787</url>
</wpt>
<wpt lat="46.8233254" lon="2.642587">
  <name>Les Jardins d'Escofine </name>
  <desc>Ferme maraîchère en agriculture biologique sur sol vivant </desc>
    <url>https://wwoof.fr/de/host/9785</url>
</wpt>
<wpt lat="47.30234" lon="3.89839">
  <name>Poneyland</name>
  <desc>Élevage de poneys</desc>
    <url>https://wwoof.fr/de/host/9781</url>
</wpt>
<wpt lat="43.1582988" lon="1.373397">
  <name>Ô pas sage et ferme de Paracibum</name>
  <desc>Verger maraîcher/Floriculture sur sol vivant/Petits fruit/Éco constructions</desc>
    <url>https://wwoof.fr/de/host/9780</url>
</wpt>
<wpt lat="43.3115049" lon="-1.569142">
  <name>Biltze Ttikiak (Les Petites Récoltes)</name>
  <desc>Verger de pommes (variétés anciennes basques)</desc>
    <url>https://wwoof.fr/de/host/9779</url>
</wpt>
<wpt lat="48.881117" lon="0.445423">
  <name>La PépinOuche </name>
  <desc>Première Pépinière de plants bios comestibles du pays d'Ouche</desc>
    <url>https://wwoof.fr/de/host/9778</url>
</wpt>
<wpt lat="43.2853832" lon="-0.5622061">
  <name>Exploitation Fabaçées</name>
  <desc>Ferme maraîchère certifiée en agriculture biologique </desc>
    <url>https://wwoof.fr/de/host/9777</url>
</wpt>
<wpt lat="44.91428" lon="1.011285">
  <name>La Combe</name>
  <desc>Ferme à proximité d'un camping a la ferme </desc>
    <url>https://wwoof.fr/de/host/9776</url>
</wpt>
<wpt lat="45.977461" lon="1.52906">
  <name>Chez Lafont </name>
  <desc>Ferme biologique maraichère et accueil </desc>
    <url>https://wwoof.fr/de/host/9775</url>
</wpt>
<wpt lat="49.388983" lon="4.787714">
  <name>Ferme Aurizel</name>
  <desc>Ferme AB polyculture elevage</desc>
    <url>https://wwoof.fr/de/host/9774</url>
</wpt>
<wpt lat="47.6636276" lon="-1.2316415">
  <name>GAEC Lait Biques et Délices</name>
  <desc>Elevage de chèvre laitière avec transformation fromagère en agriculture biologique </desc>
    <url>https://wwoof.fr/de/host/9773</url>
</wpt>
<wpt lat="44.753693" lon="3.382378">
  <name>La ferme de la terre et de l'eau</name>
  <desc>Ferme entre margeride et aubrac</desc>
    <url>https://wwoof.fr/de/host/9772</url>
</wpt>
<wpt lat="42.8625789" lon="2.4614569">
  <name> La Petitoye</name>
  <desc>Ferme biologique  élevages</desc>
    <url>https://wwoof.fr/de/host/9769</url>
</wpt>
<wpt lat="43.981236" lon="3.733832">
  <name>La Renardière</name>
  <desc>Ferme perma-culturelle expérimentale </desc>
    <url>https://wwoof.fr/de/host/9767</url>
</wpt>
<wpt lat="49.898404" lon="2.322573">
  <name>Mattadito</name>
  <desc>Ferme archipel des sorcièr.e.s et des pirates</desc>
    <url>https://wwoof.fr/de/host/9766</url>
</wpt>
<wpt lat="45.9093542" lon="-1.2807039">
  <name>Ma petite ferme sans nom</name>
  <desc>Petit paysan bio polyculture elevage chèvres poitevines</desc>
    <url>https://wwoof.fr/de/host/9765</url>
</wpt>
<wpt lat="47.7935099" lon="4.5416834">
  <name>Mi-Ombre à la Pointerie</name>
  <desc>Petite ferme horticole naturelle au sein d’un tiers lieu</desc>
    <url>https://wwoof.fr/de/host/9764</url>
</wpt>
<wpt lat="43.92855" lon="7.512085">
  <name>Ar Chianas </name>
  <desc>Oliveraie biologique aux portes du Mercantour </desc>
    <url>https://wwoof.fr/de/host/9763</url>
</wpt>
<wpt lat="44.861748" lon="4.325638">
  <name>Ferme de l'oppidum</name>
  <desc>Ferme biologique </desc>
    <url>https://wwoof.fr/de/host/9762</url>
</wpt>
<wpt lat="46.2418739" lon="3.1515084">
  <name>Abbaye Saint Vincent de Chantelle</name>
  <desc>Le jardin de l'abbaye</desc>
    <url>https://wwoof.fr/de/host/9760</url>
</wpt>
<wpt lat="50.5556837" lon="3.0535424">
  <name>La Fort'magerie</name>
  <desc>Ferme bio ovine laitiere</desc>
    <url>https://wwoof.fr/de/host/9758</url>
</wpt>
<wpt lat="44.135291" lon="4.18329">
  <name>Le mas de Font Sadoulé</name>
  <desc>Mas isolé en pleine garrigue, beaucoup de terrain</desc>
    <url>https://wwoof.fr/de/host/9757</url>
</wpt>
<wpt lat="45.2170531" lon="4.0003621">
  <name>Gourmandises Buissonnières</name>
  <desc>Micro-ferme en agriculture biologique : culture de petits fruits, PPAM, cueillette sauvage, </desc>
    <url>https://wwoof.fr/de/host/9756</url>
</wpt>
<wpt lat="47.909111" lon="-4.330159">
  <name>Les Abris de Kermenguy</name>
  <desc>Elevage volailles, maraichage, jardinage et eco rénovation en baie d'Audierne, Finistère</desc>
    <url>https://wwoof.fr/de/host/9755</url>
</wpt>
<wpt lat="44.1838726" lon="2.1042266">
  <name>La petite Joulinie</name>
  <desc>Ferme gite dans la vallée du Viaur</desc>
    <url>https://wwoof.fr/de/host/9754</url>
</wpt>
<wpt lat="47.8205824" lon="0.206232">
  <name>Le Petit Chambron</name>
  <desc>En démarche écologique depuis 30 ans, notre fille y développe son entreprise de PPAM depuis 2017.</desc>
    <url>https://wwoof.fr/de/host/9751</url>
</wpt>
<wpt lat="42.8000605" lon="1.2628931">
  <name>La Colline Verte</name>
  <desc>Petite production paysanne de montagne</desc>
    <url>https://wwoof.fr/de/host/9750</url>
</wpt>
<wpt lat="44.6593817" lon="5.8541656">
  <name>La Ferme des Garcins</name>
  <desc>Petite ferme de montagne avec vaches, ruches, meunerie, fournil</desc>
    <url>https://wwoof.fr/de/host/9748</url>
</wpt>
<wpt lat="44.859439" lon="1.892482">
  <name>Les Jardins des Lapins</name>
  <desc>Collectif,  Permaculture, Autarcie, Maraichage, Eco-construction....</desc>
    <url>https://wwoof.fr/de/host/9747</url>
</wpt>
<wpt lat="44.969767" lon="0.532226">
  <name>Pépinière de la Crempse</name>
  <desc>Pépinière de fruitiers, petits fruits et plantes mellifères en agro-écologie</desc>
    <url>https://wwoof.fr/de/host/9746</url>
</wpt>
<wpt lat="47.4032223" lon="-1.9928497">
  <name>Ferme de camonteau</name>
  <desc>Ferme d'élevage vaches laitières dans le bocage</desc>
    <url>https://wwoof.fr/de/host/9744</url>
</wpt>
<wpt lat="46.9310585" lon="-0.4080417">
  <name>Le jardin maraîcher Harmonium</name>
  <desc>Maraîchage bio en petite surface</desc>
    <url>https://wwoof.fr/de/host/9743</url>
</wpt>
<wpt lat="48.9375889" lon="1.84101">
  <name>La Microferme de Nézel</name>
  <desc>Ferme de fruits et légumes bio aux portes de Paris</desc>
    <url>https://wwoof.fr/de/host/9742</url>
</wpt>
<wpt lat="42.7686907" lon="2.4542673">
  <name>GAEC Cami de la Ramade</name>
  <desc>Ferme biologique élevage Brebis</desc>
    <url>https://wwoof.fr/de/host/9741</url>
</wpt>
<wpt lat="44.3734335" lon="2.9677456">
  <name>Ferme du Mulet</name>
  <desc>Paysan boulanger / Peasant baker (Aveyron)</desc>
    <url>https://wwoof.fr/de/host/9740</url>
</wpt>
<wpt lat="47.623972" lon="-2.188059">
  <name>La ferme du Val</name>
  <desc>Ferme paysanne en agriculture biologique, jardin pédagogique, habitats collectifs. </desc>
    <url>https://wwoof.fr/de/host/9739</url>
</wpt>
<wpt lat="46.0862727" lon="0.7237562">
  <name>Flo Garden </name>
  <desc>Micro Ferme Maraichère  au  naturel </desc>
    <url>https://wwoof.fr/de/host/9738</url>
</wpt>
<wpt lat="47.914105" lon="-4.325831">
  <name>Légumes du Train Carottes</name>
  <desc>Ferme maraîchère bio</desc>
    <url>https://wwoof.fr/de/host/9737</url>
</wpt>
<wpt lat="44.13203" lon="2.348875">
  <name>&quot;Le cambou&quot;</name>
  <desc>Ferme cédée par mes parents, lieu d'accueil en perma et en responsabilité citoyenne en devenir </desc>
    <url>https://wwoof.fr/de/host/9736</url>
</wpt>
<wpt lat="48.6193385" lon="-2.8620915">
  <name>Les Jardins des Possibles</name>
  <desc>Micro-ferme safranière et équestre</desc>
    <url>https://wwoof.fr/de/host/9732</url>
</wpt>
<wpt lat="43.5786618" lon="3.5215865">
  <name>Melîmelô 2 Saveurs</name>
  <desc>Du Grains au Pain</desc>
    <url>https://wwoof.fr/de/host/9731</url>
</wpt>
<wpt lat="46.2473887" lon="5.0297481">
  <name>La ferme Gambetta</name>
  <desc>Ferme en maraîchage située en Bresse à Mézériat</desc>
    <url>https://wwoof.fr/de/host/9730</url>
</wpt>
<wpt lat="46.5127003" lon="2.97344">
  <name>La ferme de Gaston</name>
  <desc>Organic poly-culture farm in the green heart of France, with bees, pigs and rabbits</desc>
    <url>https://wwoof.fr/de/host/9729</url>
</wpt>
<wpt lat="44.038177" lon="2.3545219">
  <name>LA FERME DE PEYROUSE</name>
  <desc>Ferme Agriculture Biologique dans le Ségala Tarnais</desc>
    <url>https://wwoof.fr/de/host/9728</url>
</wpt>
<wpt lat="47.884331" lon="-4.347375">
  <name>Ferme des Dunes</name>
  <desc>Ferme agroécologique et agriculturel au bout de la Bretagne</desc>
    <url>https://wwoof.fr/de/host/9726</url>
</wpt>
<wpt lat="43.889026" lon="0.063688">
  <name>Collectif Broquère</name>
  <desc>Collectif en création dans un hameau gersois</desc>
    <url>https://wwoof.fr/de/host/9725</url>
</wpt>
<wpt lat="45.59117" lon="5.659759">
  <name>Tout Simplement</name>
  <desc>Production de plantes aromatiques et médicinales, au sein d'un habitat groupé</desc>
    <url>https://wwoof.fr/de/host/9724</url>
</wpt>
<wpt lat="46.421374" lon="1.958411">
  <name>Ecolieu de Nouziers</name>
  <desc>Ecolieu en évolution, 4 résidents et potentiellement 5 foyers en dur : rénovation et habitats légers</desc>
    <url>https://wwoof.fr/de/host/9722</url>
</wpt>
<wpt lat="44.37115" lon="-0.210744">
  <name>Le Pelissey</name>
  <desc>Lieu en perma'construction en Sud-Gironde</desc>
    <url>https://wwoof.fr/de/host/9721</url>
</wpt>
<wpt lat="42.663261" lon="2.486197">
  <name>La Bêle Chèvre</name>
  <desc>Elevage caprin fromager en BIO</desc>
    <url>https://wwoof.fr/de/host/9720</url>
</wpt>
<wpt lat="48.2947585" lon="-3.3872619">
  <name>Les Légumes de La Forêt</name>
  <desc>Micro-ferme biologique dans le centre Bretagne</desc>
    <url>https://wwoof.fr/de/host/9719</url>
</wpt>
<wpt lat="48.330084" lon="-2.3689325">
  <name>Domaine de Rochereuil</name>
  <desc>Domaine viticole planté en 2021</desc>
    <url>https://wwoof.fr/de/host/9715</url>
</wpt>
<wpt lat="45.3294629" lon="3.130772">
  <name>La Ferme d'Autrac</name>
  <desc>Ferme biologique en polyculture élevage en Haute Loire</desc>
    <url>https://wwoof.fr/de/host/9714</url>
</wpt>
<wpt lat="44.202851" lon="3.689255">
  <name>Le clos de la Rouviere</name>
  <desc>Pluriactivité agricole en viticulture et maraichage (mention Nature et Progrès)</desc>
    <url>https://wwoof.fr/de/host/9712</url>
</wpt>
<wpt lat="47.994585" lon="0.816965">
  <name>Le Jardin des Aulnes</name>
  <desc>Jardin comestible dans le Perche sarthois</desc>
    <url>https://wwoof.fr/de/host/9708</url>
</wpt>
<wpt lat="48.461196" lon="-4.135566">
  <name>Breizh Bell</name>
  <desc>Champignonière low-tech dans le Finistère</desc>
    <url>https://wwoof.fr/de/host/9704</url>
</wpt>
<wpt lat="48.319496" lon="-3.265437">
  <name>Moutons de kernon</name>
  <desc>Ferme ovine agneau de pays</desc>
    <url>https://wwoof.fr/de/host/9703</url>
</wpt>
<wpt lat="43.5987049" lon="6.2456534">
  <name>LA BASTIDE DE PLERIMOND</name>
  <desc>Domaine viticole certifié bio ecocert</desc>
    <url>https://wwoof.fr/de/host/9701</url>
</wpt>
<wpt lat="46.743134" lon="5.489927">
  <name>Les jardins de Ruffey</name>
  <desc>Microferme maraîchère dans la plaine Jurassienne</desc>
    <url>https://wwoof.fr/de/host/9695</url>
</wpt>
<wpt lat="43.1592364" lon="1.9132107">
  <name>La Gélade</name>
  <desc>Mise en place de jardins en permaculture</desc>
    <url>https://wwoof.fr/de/host/9693</url>
</wpt>
<wpt lat="42.9414054" lon="2.1308649">
  <name>Les Bernots</name>
  <desc>Ferme certifiie bio dans le sud de la France</desc>
    <url>https://wwoof.fr/de/host/9691</url>
</wpt>
<wpt lat="46.090109" lon="6.166322">
  <name>Les chevres du Saleve</name>
  <desc>Ferme biologique , fabrication fromagère avec 40 chèvres, poules, cochons et jardin.  </desc>
    <url>https://wwoof.fr/de/host/9690</url>
</wpt>
<wpt lat="42.8848297" lon="1.0640965">
  <name>Au coeur de la Core</name>
  <desc>Petite ferme familiale de montagne (Pyrénées Ariégeoises)</desc>
    <url>https://wwoof.fr/de/host/9688</url>
</wpt>
<wpt lat="45.8866217" lon="0.5815288">
  <name>Le p'tite forêt du viaduc</name>
  <desc>Ecolieu agroforestier</desc>
    <url>https://wwoof.fr/de/host/9685</url>
</wpt>
<wpt lat="47.662221" lon="-2.3815179">
  <name>Keravenan</name>
  <desc>Corps de ferme et propriété au cœur des bois</desc>
    <url>https://wwoof.fr/de/host/9683</url>
</wpt>
<wpt lat="48.2122762" lon="-0.182083">
  <name>La ferme de La Touche Morin</name>
  <desc>Ferme à but autonome</desc>
    <url>https://wwoof.fr/de/host/9679</url>
</wpt>
<wpt lat="43.544117" lon="5.982076">
  <name>Les Champs Magnétiques</name>
  <desc>Petite ferme en permaculture en Provence Verte</desc>
    <url>https://wwoof.fr/de/host/9678</url>
</wpt>
<wpt lat="48.81526" lon="-0.032555">
  <name>Ferme  élevage de l'icône </name>
  <desc>Élevage d'animaux </desc>
    <url>https://wwoof.fr/de/host/9677</url>
</wpt>
<wpt lat="48.789905" lon="-0.915377">
  <name>La bechaudière</name>
  <desc>Lieu sauvage au milieu du bocage</desc>
    <url>https://wwoof.fr/de/host/9672</url>
</wpt>
<wpt lat="43.97596" lon="2.477396">
  <name>Le jardin de Caro</name>
  <desc>Jardin bio certifié sur le ségala tarnais</desc>
    <url>https://wwoof.fr/de/host/9670</url>
</wpt>
<wpt lat="43.5316876" lon="1.3243029">
  <name>Ô champ des saisons</name>
  <desc>Maraîchage en permaculture</desc>
    <url>https://wwoof.fr/de/host/9668</url>
</wpt>
<wpt lat="45.8509829" lon="1.1203502">
  <name>La jeune pousse</name>
  <desc>Création écolieux biologique</desc>
    <url>https://wwoof.fr/de/host/9667</url>
</wpt>
<wpt lat="46.540035" lon="-1.340696">
  <name>Rives en Act'Yon </name>
  <desc>Ecolieu en devenir , proche de la nature et de l'humain </desc>
    <url>https://wwoof.fr/de/host/9665</url>
</wpt>
<wpt lat="43.1111523" lon="2.2909343">
  <name>Plateau du Cascal</name>
  <desc>Vignes AB et vinification nature dans l'Aude en face des pyrennées</desc>
    <url>https://wwoof.fr/de/host/9663</url>
</wpt>
<wpt lat="44.8997331" lon="2.013275">
  <name>Le jardin de La Rivière</name>
  <desc>Micro ferme maraichage en construction</desc>
    <url>https://wwoof.fr/de/host/9662</url>
</wpt>
<wpt lat="43.749084" lon="2.263745">
  <name>La ferme des Zazous</name>
  <desc>Ferme collective bio paysanne et pédagogique</desc>
    <url>https://wwoof.fr/de/host/9661</url>
</wpt>
<wpt lat="44.0655185" lon="-1.2126613">
  <name>La Ferme Sauvage</name>
  <desc>Ferme agroécologique certifiée AB</desc>
    <url>https://wwoof.fr/de/host/9652</url>
</wpt>
<wpt lat="47.9638382" lon="-4.0589149">
  <name>Jardin imaginaire </name>
  <desc>Ferme maraîchère bio en sud Finistère </desc>
    <url>https://wwoof.fr/de/host/9650</url>
</wpt>
<wpt lat="43.1936237" lon="0.4021892">
  <name>La Ferme Carol</name>
  <desc>Ferme familiale en culture biologique et permaculture</desc>
    <url>https://wwoof.fr/de/host/9649</url>
</wpt>
<wpt lat="43.3132019" lon="-0.6069369">
  <name>La Régalade</name>
  <desc>Ferme Bio &amp; vivante, légumes, agroécologie, vente directe, animations, ...</desc>
    <url>https://wwoof.fr/de/host/9647</url>
</wpt>
<wpt lat="42.8252764" lon="0.5505025">
  <name>Les pieds dans les orties</name>
  <desc>Petite production de plantes aromatiques et médicinales dans les Pyrénnées</desc>
    <url>https://wwoof.fr/de/host/9645</url>
</wpt>
<wpt lat="42.7979" lon="1.085674">
  <name>Micro-ferme la Grangette</name>
  <desc>Micro-ferme  vivrière : Pyrénées Ariégeoises à 900m d'altitude (principes perma-culturels)</desc>
    <url>https://wwoof.fr/de/host/9644</url>
</wpt>
<wpt lat="46.326942" lon="4.575373">
  <name>Domaine des deux fermes</name>
  <desc>3 vergers 2 jardins en Saône et Loire</desc>
    <url>https://wwoof.fr/de/host/9640</url>
</wpt>
<wpt lat="46.21962" lon="4.917824">
  <name>La ferme d'Orgemont</name>
  <desc>Ferme certifiée biologique située dans le département de l'Ain </desc>
    <url>https://wwoof.fr/de/host/9639</url>
</wpt>
<wpt lat="49.2919888" lon="1.0057478">
  <name>VER Déter' </name>
  <desc>Jardin Maraicher expérimental entre ville et forêt.</desc>
    <url>https://wwoof.fr/de/host/9638</url>
</wpt>
<wpt lat="45.7057208" lon="5.683399">
  <name>Chez Flo</name>
  <desc>Petite production familiale entre Bugey et Savoie</desc>
    <url>https://wwoof.fr/de/host/9635</url>
</wpt>
<wpt lat="44.696392" lon="2.548876">
  <name>Le Moulin à légumes </name>
  <desc>Préparation d'un projet maraîcher et paysan</desc>
    <url>https://wwoof.fr/de/host/9631</url>
</wpt>
<wpt lat="47.831685" lon="-3.246165">
  <name>Verger du Bunz</name>
  <desc>Réhabilitation d une ancienne ferme en projet permaculture. </desc>
    <url>https://wwoof.fr/de/host/9627</url>
</wpt>
<wpt lat="43.1082106" lon="-0.3665604">
  <name>Ferme Arricau</name>
  <desc>Lieu de vie de notre famille au cœur du Béarn</desc>
    <url>https://wwoof.fr/de/host/9626</url>
</wpt>
<wpt lat="44.881726" lon="4.2481766">
  <name>La Galerie Ardéchoise</name>
  <desc>Retour vers les choses simples</desc>
    <url>https://wwoof.fr/de/host/9625</url>
</wpt>
<wpt lat="48.121469" lon="-1.4603703">
  <name>La ferme de Tatoux</name>
  <desc>Ferme biologique en brebis laitière</desc>
    <url>https://wwoof.fr/de/host/9624</url>
</wpt>
<wpt lat="45.884469" lon="4.0198138">
  <name>Les Carrés Jardin</name>
  <desc>Les Carrés Jardin: oasis a double vocation: production de fruits &amp; légumes et création d'un jardin</desc>
    <url>https://wwoof.fr/de/host/9623</url>
</wpt>
<wpt lat="45.38872" lon="-1.1223475">
  <name>Le Baraillon </name>
  <desc>Micro ferme 7 hectares de forêts au bord de l océan </desc>
    <url>https://wwoof.fr/de/host/9621</url>
</wpt>
<wpt lat="48.9480079" lon="3.70035">
  <name>Un Trait d'Avance</name>
  <desc>Traction Animale et mini ferme</desc>
    <url>https://wwoof.fr/de/host/9620</url>
</wpt>
<wpt lat="45.971769" lon="1.4900199">
  <name>Forêt Jardin du Petit Chavanat</name>
  <desc>Production de PPAM, Création d'une forêt jardin, Création Pépinière Permacole</desc>
    <url>https://wwoof.fr/de/host/9619</url>
</wpt>
<wpt lat="43.2288284" lon="0.4131256">
  <name>Galan</name>
  <desc>Maison bohème dans les Hautes Pyrénées</desc>
    <url>https://wwoof.fr/de/host/9618</url>
</wpt>
<wpt lat="42.91641" lon="0.869166">
  <name>Les Illous</name>
  <desc>Culture de fruits rouges</desc>
    <url>https://wwoof.fr/de/host/9617</url>
</wpt>
<wpt lat="47.723645" lon="-2.916955">
  <name>La Grelinette Cendrée</name>
  <desc>Ferme Biodynamique Expérimentale </desc>
    <url>https://wwoof.fr/de/host/9611</url>
</wpt>
<wpt lat="45.1370062" lon="4.2905038">
  <name>Les Jardins du TRIFOULOU</name>
  <desc>Ferme Biologique de montagne (900 m) en maraîchage et petit élevage de Highland Cattle</desc>
    <url>https://wwoof.fr/de/host/9608</url>
</wpt>
<wpt lat="43.4815091" lon="6.0814585">
  <name>Les 3 sources</name>
  <desc>Maraîchage sur sol vivant, permaculture et agroforesterie</desc>
    <url>https://wwoof.fr/de/host/9607</url>
</wpt>
<wpt lat="45.5649808" lon="4.0016967">
  <name>Laplace aux herbes</name>
  <desc>Exploitation en PAM BIO dans les monts du forez (42)</desc>
    <url>https://wwoof.fr/de/host/9605</url>
</wpt>
<wpt lat="48.2917777" lon="2.6946718">
  <name>Le verger de Fromonville</name>
  <desc>Ferme biologique en lisière du PNR du Gatinais: 400 arbres fruitiers et 150 plants petits fruits </desc>
    <url>https://wwoof.fr/de/host/9604</url>
</wpt>
<wpt lat="49.8978537" lon="3.7490144">
  <name>Les ânes de Laurence </name>
  <desc>Potager bio et animaux (ânes,   et volailles) sur 1ha 500</desc>
    <url>https://wwoof.fr/de/host/9603</url>
</wpt>
<wpt lat="47.3292143" lon="-2.4417277">
  <name>Saline Plat</name>
  <desc>Saliculture/ Exploitation de gros sel et fleur de sel à Guérande</desc>
    <url>https://wwoof.fr/de/host/9482</url>
</wpt>
<wpt lat="43.3400841" lon="0.8401265">
  <name>Elevage du Hogan des Vents</name>
  <desc>Ferme agro écologique située en Haute Garonne</desc>
    <url>https://wwoof.fr/de/host/9479</url>
</wpt>
<wpt lat="41.5936607" lon="8.8764182">
  <name>Le rucher de Vaccil Vecchiu</name>
  <desc>Ferme biologique certifiée au coeur du territoire sartenais </desc>
    <url>https://wwoof.fr/de/host/9478</url>
</wpt>
<wpt lat="48.254692" lon="7.394979">
  <name>UtoPlantes</name>
  <desc>Jardins chanvriers au cœur du massif des Vosges</desc>
    <url>https://wwoof.fr/de/host/9477</url>
</wpt>
<wpt lat="43.9280698" lon="6.9482042">
  <name>Les Jardins de Besseuges</name>
  <desc>Les Jardins de Besseuges, au coeur du Parc Régional des Pré-Alpes d'Azur</desc>
    <url>https://wwoof.fr/de/host/9474</url>
</wpt>
<wpt lat="43.272516" lon="-0.99413">
  <name>Urhobia</name>
  <desc>Ferme fruitière et maraîchère au coeur du Pays-basque</desc>
    <url>https://wwoof.fr/de/host/9473</url>
</wpt>
<wpt lat="43.0099387" lon="0.4682981">
  <name>Les jardins de Nistos</name>
  <desc>Ferme fruits AB dans le piémont pyrénéen</desc>
    <url>https://wwoof.fr/de/host/9471</url>
</wpt>
<wpt lat="47.695939" lon="5.929665">
  <name>Les vergers du paradis</name>
  <desc> Grand verger familial labellisé en bio .</desc>
    <url>https://wwoof.fr/de/host/9470</url>
</wpt>
<wpt lat="43.7266724" lon="5.209474">
  <name>Gaec le spigaou</name>
  <desc>Ferme biologique dans la basse vallée de la durance</desc>
    <url>https://wwoof.fr/de/host/9468</url>
</wpt>
<wpt lat="48.40963318" lon="-3.46172949">
  <name>EARL Ades</name>
  <desc>Lait bio </desc>
    <url>https://wwoof.fr/de/host/9466</url>
</wpt>
<wpt lat="41.570535" lon="9.21423">
  <name>L'ORTU DI FRASO</name>
  <desc>JARDIN BIOLOGIQUE CERTIFIÉ</desc>
    <url>https://wwoof.fr/de/host/9465</url>
</wpt>
<wpt lat="47.4974193" lon="1.2547065">
  <name>Le Potager de Laborde Saint Martin</name>
  <desc>Potager en Maraîchage Sol Vivant</desc>
    <url>https://wwoof.fr/de/host/9464</url>
</wpt>
<wpt lat="45.695184" lon="4.3775107">
  <name>Les jardins qui pétillent</name>
  <desc>Maraichage biologique en  permaculture et agroforesterie</desc>
    <url>https://wwoof.fr/de/host/9463</url>
</wpt>
<wpt lat="42.987287" lon="1.1440305">
  <name>Jardins d'Arize</name>
  <desc>Jardin potager et PPAM, non mécanisé, sur une parcelle préservée au sein de la vallée de l'Arize</desc>
    <url>https://wwoof.fr/de/host/9462</url>
</wpt>
<wpt lat="44.214396" lon="-1.226614">
  <name>Le Champ des Pirates</name>
  <desc>Ferme agroécologique diversifiée</desc>
    <url>https://wwoof.fr/de/host/9461</url>
</wpt>
<wpt lat="46.784655" lon="4.099607">
  <name>Le pillier</name>
  <desc>Lieu de biodiversité avec zone marécageuse, futur conservatoire fruitier, potager vivrier de 500m2</desc>
    <url>https://wwoof.fr/de/host/9458</url>
</wpt>
<wpt lat="49.0466221" lon="4.0309418">
  <name>Domaine Antoine Bouvet</name>
  <desc>Domaine viticole en Champagne, mené en agriculture biologique</desc>
    <url>https://wwoof.fr/de/host/9457</url>
</wpt>
<wpt lat="46.1700205" lon="2.3325705">
  <name>Ferme de la Nouzière</name>
  <desc>Ferme certifiée biologique, située en bordure de l'étang des Landes (réserve naturelle). </desc>
    <url>https://wwoof.fr/de/host/9455</url>
</wpt>
<wpt lat="47.2511641" lon="1.1656325">
  <name>LA FERME DE RAZAY</name>
  <desc>Ferme pédagogique  et potager permaculture en cours de  création </desc>
    <url>https://wwoof.fr/de/host/9452</url>
</wpt>
<wpt lat="48.5380372" lon="-0.1049648">
  <name>Les chèvres de Lila</name>
  <desc>Petite chèvrerie en agriculture biologique et énergie solaire</desc>
    <url>https://wwoof.fr/de/host/9449</url>
</wpt>
<wpt lat="45.6422648" lon="4.6915775">
  <name>Le verger des Croisettes</name>
  <desc>Petit verger permacole dans les Coteaux du Lyonnais (arboriculteur retraité)</desc>
    <url>https://wwoof.fr/de/host/9447</url>
</wpt>
<wpt lat="42.8928582" lon="1.2108367">
  <name>Culture Sanah et Irish Cob</name>
  <desc>Ferme biologique certifiée en Ariège</desc>
    <url>https://wwoof.fr/de/host/9445</url>
</wpt>
<wpt lat="43.139157" lon="-0.588079">
  <name>Les escoupats</name>
  <desc>Ferme maraichere biologique dans les pyrenees</desc>
    <url>https://wwoof.fr/de/host/9444</url>
</wpt>
<wpt lat="44.151119" lon="1.756144">
  <name>GAEC LA CAUSSENARDE</name>
  <desc>Ferme en Agriculture Biologique, élevage ovins, bovins, porcins (vente directe sur les marchés).</desc>
    <url>https://wwoof.fr/de/host/9442</url>
</wpt>
<wpt lat="48.2661524" lon="0.5958786">
  <name>Les Jardins des Petites Courbes</name>
  <desc>Microferme Maraîchère et Fruitière</desc>
    <url>https://wwoof.fr/de/host/9438</url>
</wpt>
<wpt lat="49.2653864" lon="0.6170267">
  <name>Ferme des Annélides</name>
  <desc>Ferme biologique - légumes et oeufs</desc>
    <url>https://wwoof.fr/de/host/9434</url>
</wpt>
<wpt lat="49.4235798" lon="0.4523308">
  <name>Gîte de L'Anerie</name>
  <desc>Accueil au coeur d'une réserve naturelle  </desc>
    <url>https://wwoof.fr/de/host/9432</url>
</wpt>
<wpt lat="44.2344942" lon="2.1066136">
  <name>Les Clefs du Sol</name>
  <desc>Ferme collective biologique en traction animale </desc>
    <url>https://wwoof.fr/de/host/9431</url>
</wpt>
<wpt lat="44.899354" lon="1.740665">
  <name>La maison de Maguite</name>
  <desc>Remise en route d'une ferme en permaculture</desc>
    <url>https://wwoof.fr/de/host/9428</url>
</wpt>
<wpt lat="44.99813" lon="0.912582">
  <name>Les Gardiens de la Forêt</name>
  <desc> Association /Eco lieu en création Dordogne</desc>
    <url>https://wwoof.fr/de/host/9426</url>
</wpt>
<wpt lat="44.544364" lon="3.998593">
  <name>L'Echappée Bêle</name>
  <desc>Ferme familiale dans les Cévennes Ardéchoises</desc>
    <url>https://wwoof.fr/de/host/9422</url>
</wpt>
<wpt lat="45.963207" lon="2.309357">
  <name>Les trois ponts</name>
  <desc>Welcome to join our family living in an old mill.</desc>
    <url>https://wwoof.fr/de/host/9421</url>
</wpt>
<wpt lat="43.6326335" lon="0.8774444">
  <name>Safran d'En Marre</name>
  <desc>Safranière biologique au cœur du Gers</desc>
    <url>https://wwoof.fr/de/host/9420</url>
</wpt>
<wpt lat="47.5529479" lon="-2.2819992">
  <name>Les Petits-Fruits de la Vilaine</name>
  <desc>Ferme biologique productrice de fraises </desc>
    <url>https://wwoof.fr/de/host/9417</url>
</wpt>
<wpt lat="43.225907" lon="-0.476916">
  <name>Les Jardins d'Humus</name>
  <desc>Ferme maraichère en agriculture biologique et agroécologie</desc>
    <url>https://wwoof.fr/de/host/9416</url>
</wpt>
<wpt lat="43.8653459" lon="5.9459561">
  <name>Ferme La Pierrine</name>
  <desc>Elevage de chèvres laitières/Fromagères et autres ateliers vivriers</desc>
    <url>https://wwoof.fr/de/host/9412</url>
</wpt>
<wpt lat="44.2905811" lon="1.7948766">
  <name>La ferme du moulin de vignasse</name>
  <desc>Ferme caprine de 40 chèvres avec transformation fromage et production maraîchère </desc>
    <url>https://wwoof.fr/de/host/9411</url>
</wpt>
<wpt lat="43.1760584" lon="1.4290328">
  <name>Ferme Les Côteaux</name>
  <desc>Regenerative organic farm in the foothills of the Pyrenees</desc>
    <url>https://wwoof.fr/de/host/9410</url>
</wpt>
<wpt lat="49.427318" lon="-1.599433">
  <name>Fleury Cyrille</name>
  <desc>Ferme convertie à l'agriculture biologique</desc>
    <url>https://wwoof.fr/de/host/9409</url>
</wpt>
<wpt lat="46.0523928" lon="3.9957354">
  <name>Petite Ferme Familiale</name>
  <desc>Autonomie alimentaire</desc>
    <url>https://wwoof.fr/de/host/9407</url>
</wpt>
<wpt lat="46.4802065" lon="5.2062732">
  <name>L'Oasis de Matrignat</name>
  <desc>Ferme en agroécologie</desc>
    <url>https://wwoof.fr/de/host/9406</url>
</wpt>
<wpt lat="43.4467913" lon="5.8336118">
  <name>Domaine du Deffends</name>
  <desc>Vignerons biologiques en Provence</desc>
    <url>https://wwoof.fr/de/host/9405</url>
</wpt>
<wpt lat="43.84636" lon="7.2862567">
  <name>La part des Simples</name>
  <desc>Plantes médicinales et aromatiques dans les Alpes Maritimes</desc>
    <url>https://wwoof.fr/de/host/9401</url>
</wpt>
<wpt lat="42.866238" lon="1.264503">
  <name>Las Ribos</name>
  <desc>Foret-jardin permacole en cours d'aménagement</desc>
    <url>https://wwoof.fr/de/host/9397</url>
</wpt>
<wpt lat="43.160069" lon="1.5802604">
  <name>Ferme de Langlade</name>
  <desc>Bois et élevage bio au pieds des Pyrénées</desc>
    <url>https://wwoof.fr/de/host/9394</url>
</wpt>
<wpt lat="46.78428" lon="4.212259">
  <name>Bellecombe</name>
  <desc>Expérience de permaculture en construction</desc>
    <url>https://wwoof.fr/de/host/9390</url>
</wpt>
<wpt lat="49.3905935" lon="-1.2332942">
  <name>Ferm de franqueville</name>
  <desc>Organic farm, regenerative agriculture project. Pastoral agroforestry, using animal traction.</desc>
    <url>https://wwoof.fr/de/host/9388</url>
</wpt>
<wpt lat="43.2155416" lon="1.106883">
  <name>L'appel du Grain</name>
  <desc>Paysans boulangers gravitant autour d'une coopérative d'habitants</desc>
    <url>https://wwoof.fr/de/host/9386</url>
</wpt>
<wpt lat="43.090278" lon="-0.916194">
  <name>GAEC ANCIA</name>
  <desc>Plants maraichers &amp; horticoles </desc>
    <url>https://wwoof.fr/de/host/9380</url>
</wpt>
<wpt lat="46.4055848" lon="1.8156391">
  <name>Pepito's farm</name>
  <desc>Ferme refuge végétarienne. Laboratoire d'auto-suffisance alimentaire: potager sur fumier des animaux</desc>
    <url>https://wwoof.fr/de/host/9379</url>
</wpt>
<wpt lat="43.5836083" lon="-1.1826851">
  <name>OHIKOA</name>
  <desc>FERME PEDAGOGIQUE - Agriculture biologique et permaculture</desc>
    <url>https://wwoof.fr/de/host/9377</url>
</wpt>
<wpt lat="48.4922567" lon="4.3141311">
  <name>LEA Florilège</name>
  <desc>Ecosystème Maraichage Jardin-Forêt</desc>
    <url>https://wwoof.fr/de/host/9373</url>
</wpt>
<wpt lat="47.914367" lon="-0.421238">
  <name>Elevage du Clan Feliz</name>
  <desc>Elevage Equin et installation de Permaculture </desc>
    <url>https://wwoof.fr/de/host/9372</url>
</wpt>
<wpt lat="46.099669" lon="6.74623">
  <name>Lost Glacier</name>
  <desc>Off-grid eco-farm in a beautiful nature reserve in the French Alps</desc>
    <url>https://wwoof.fr/de/host/9369</url>
</wpt>
<wpt lat="44.8644944" lon="-0.0634141">
  <name>La vigne bio de Domi</name>
  <desc>Ferme viticole au coeur du Bordelais , près de Saint Emilion</desc>
    <url>https://wwoof.fr/de/host/9367</url>
</wpt>
<wpt lat="44.1090019" lon="5.2084238">
  <name>Roseraie de Gérenton</name>
  <desc>Pépinière de rosiers anciens et jardin de collection de rosiers, mention nature et progrès</desc>
    <url>https://wwoof.fr/de/host/9364</url>
</wpt>
<wpt lat="47.2930955" lon="-3.0855981">
  <name>Feurm Ar Rozen (Ferme de la Rose)</name>
  <desc>Forêt jardin collective a belle ile en mer</desc>
    <url>https://wwoof.fr/de/host/9361</url>
</wpt>
<wpt lat="46.3499927" lon="6.0744175">
  <name>Pré Richard</name>
  <desc>Exploitation d'un verger bio d'1ha300 et d'un potager bio</desc>
    <url>https://wwoof.fr/de/host/9358</url>
</wpt>
<wpt lat="44.358181" lon="5.085543">
  <name>Monlin de marie</name>
  <desc>Moulin à huile d'olive sur un domaine de 2 hertares d'oliviers en drôme provençale</desc>
    <url>https://wwoof.fr/de/host/9354</url>
</wpt>
<wpt lat="42.986778" lon="1.349428">
  <name>Chez Jessica, Nour, Anouk et enfant de passage</name>
  <desc>Lieu de vie et de passage</desc>
    <url>https://wwoof.fr/de/host/9351</url>
</wpt>
<wpt lat="48.376939" lon="2.891214">
  <name>Champêtre - Ferme Florale des bords de Seine</name>
  <desc>Ferme florale en agriculture biologique</desc>
    <url>https://wwoof.fr/de/host/9349</url>
</wpt>
<wpt lat="44.505156" lon="0.139257">
  <name>La Marmandaise</name>
  <desc>Ancienne ferme marmandaise où naissent les projets</desc>
    <url>https://wwoof.fr/de/host/9346</url>
</wpt>
<wpt lat="43.11868" lon="-0.5936841">
  <name>La ferme des Boissières</name>
  <desc>Elevage de minis ânes en Provence</desc>
    <url>https://wwoof.fr/de/host/9343</url>
</wpt>
<wpt lat="47.6805809" lon="-2.078307">
  <name>Ferme de la Morinais</name>
  <desc>Ferme diversifiée agriculture biologique - Restaurant à la ferme</desc>
    <url>https://wwoof.fr/de/host/9342</url>
</wpt>
<wpt lat="49.96379" lon="3.153272">
  <name>Chez Emilie et Thomas</name>
  <desc>Projet d'un habitat avec un mode de vie pus simple.</desc>
    <url>https://wwoof.fr/de/host/9341</url>
</wpt>
<wpt lat="44.3682944" lon="4.0316424">
  <name>Cev'Arbo</name>
  <desc>Paysan en pluriactivité dans les Cévennes</desc>
    <url>https://wwoof.fr/de/host/9340</url>
</wpt>
<wpt lat="45.61395" lon="1.008572">
  <name>La Ferme de la Goursaline</name>
  <desc>Ferme agrotouristique en permaculture</desc>
    <url>https://wwoof.fr/de/host/9337</url>
</wpt>
<wpt lat="44.6971642" lon="4.0253014">
  <name>Label Terre</name>
  <desc>Ferme biologique sur les contreforts du plateau Ardéchois</desc>
    <url>https://wwoof.fr/de/host/9336</url>
</wpt>
<wpt lat="44.75262" lon="1.98834">
  <name>La ferme du Moulin de Nadal</name>
  <desc>Ferme familiale en bio et biodynamie depuis 1990</desc>
    <url>https://wwoof.fr/de/host/9332</url>
</wpt>
<wpt lat="47.2430921" lon="4.2442055">
  <name>EARL RUMMLER UFFHAUSEN</name>
  <desc>Ferme du chateau dans le parc du Morvan</desc>
    <url>https://wwoof.fr/de/host/9331</url>
</wpt>
<wpt lat="47.2573433" lon="0.5488069">
  <name>Les cabanes flottantes de la Maison de Paille</name>
  <desc>Implantation d'une forêt comestible avec l'installation d'habitats legers sur l'eau</desc>
    <url>https://wwoof.fr/de/host/9329</url>
</wpt>
<wpt lat="45.477569" lon="6.4173594">
  <name>La ferme de Nils et Léa</name>
  <desc>Ferme caprine en Savoie</desc>
    <url>https://wwoof.fr/de/host/9328</url>
</wpt>
<wpt lat="43.2285247" lon="1.5619311">
  <name>Aux Jardins du Thi'Bio</name>
  <desc>Sans pétrole, la ferme est plus folle :-) Maraîchage et autonomie, et sans pétrole !</desc>
    <url>https://wwoof.fr/de/host/9326</url>
</wpt>
<wpt lat="43.371903" lon="2.132717">
  <name>Domaine de Massillargues</name>
  <desc>Élevage  bovins plein air dans la Montagne Noire</desc>
    <url>https://wwoof.fr/de/host/9324</url>
</wpt>
<wpt lat="45.8840298" lon="3.9010565">
  <name>La ferme aux limousines d'Urfé</name>
  <desc>Ferme bovins allaitant race limousines , volailles de Chairs et vente directe</desc>
    <url>https://wwoof.fr/de/host/9323</url>
</wpt>
<wpt lat="44.083856" lon="0.861891">
  <name>Moulin de Jouet</name>
  <desc>Vie écoresponsable dans un vieux moulin  / élevage de chèvres miniatures</desc>
    <url>https://wwoof.fr/de/host/9322</url>
</wpt>
<wpt lat="45.5358571" lon="5.0373049">
  <name>Le Ferme des Perronnières</name>
  <desc>Notre lieu de vie est une association où on essaie d'appliquer les principes de la permaculture</desc>
    <url>https://wwoof.fr/de/host/9319</url>
</wpt>
<wpt lat="46.596629" lon="-0.567342">
  <name>Ferme de la Vazonnière</name>
  <desc>Ferme certifiée biologique en polyculture élevage et maraîchage </desc>
    <url>https://wwoof.fr/de/host/9317</url>
</wpt>
<wpt lat="44.0725612" lon="2.8836017">
  <name>Ferme du Petit Moulin</name>
  <desc>Toute petite ferme en installation</desc>
    <url>https://wwoof.fr/de/host/9316</url>
</wpt>
<wpt lat="47.614764" lon="-2.7655759">
  <name>Captain Marée</name>
  <desc>Exploitation ostréicole</desc>
    <url>https://wwoof.fr/de/host/9314</url>
</wpt>
<wpt lat="44.0372942" lon="4.4353947">
  <name>Per Ma Circus Familha</name>
  <desc>Terrain  agricole alternatif </desc>
    <url>https://wwoof.fr/de/host/9311</url>
</wpt>
<wpt lat="46.1047492" lon="3.2039079">
  <name>La ferme à Lou</name>
  <desc>En cours de création petite ferme pedagogique, </desc>
    <url>https://wwoof.fr/de/host/9309</url>
</wpt>
<wpt lat="48.095526" lon="-3.242357">
  <name>Le Stang</name>
  <desc>Ferme en construction, les pratiques correspondent aux cahiers des charges les + engagées de l'AB</desc>
    <url>https://wwoof.fr/de/host/9308</url>
</wpt>
<wpt lat="44.3780767" lon="5.1674181">
  <name>La Ferme des aygues</name>
  <desc>Ferme en agriculture bio au pied des Baronnies</desc>
    <url>https://wwoof.fr/de/host/9305</url>
</wpt>
<wpt lat="44.12894" lon="4.320165">
  <name>Le mas de la Valus</name>
  <desc>Ferme en bio Nord du Gard, cultures de céréales, foin, amandes. Transfo en farines, pains au levain</desc>
    <url>https://wwoof.fr/de/host/9304</url>
</wpt>
<wpt lat="44.765074" lon="4.9154479">
  <name>Les Danes</name>
  <desc>Corps de ferme avec animaux et champs</desc>
    <url>https://wwoof.fr/de/host/9303</url>
</wpt>
<wpt lat="43.982258" lon="5.86557">
  <name>La Ferme Taterre</name>
  <desc>Ferme caprine et ateliers vivriers (canards, poules, potagers, cochons et brebis) AB</desc>
    <url>https://wwoof.fr/de/host/9302</url>
</wpt>
<wpt lat="45.2112068" lon="4.1446439">
  <name>Nanoferme Watata</name>
  <desc>Exploitation familiale explorant l'autonomie alimentaire en compagnie de ses animaux</desc>
    <url>https://wwoof.fr/de/host/9298</url>
</wpt>
<wpt lat="45.3810792" lon="1.8080715">
  <name>La Ferme de Cora</name>
  <desc>Élevage de poules et transformation de la châtaigne  de la ferme.</desc>
    <url>https://wwoof.fr/de/host/9297</url>
</wpt>
<wpt lat="48.836213" lon="1.058079">
  <name>Les Serres de Marcel</name>
  <desc>Ferme maraîchère sur sol vivant en Normandie</desc>
    <url>https://wwoof.fr/de/host/9294</url>
</wpt>
<wpt lat="45.785079" lon="1.995882">
  <name>&quot;Le peux du tour&quot;</name>
  <desc>Ferme en autosuffisance</desc>
    <url>https://wwoof.fr/de/host/9292</url>
</wpt>
<wpt lat="42.9832581" lon="1.4638538">
  <name>La Ferme du Sahuc</name>
  <desc>Naissance d'une micro-ferme en agroécologie au coeur des pyrénnées ariégeoises</desc>
    <url>https://wwoof.fr/de/host/9285</url>
</wpt>
<wpt lat="44.122371" lon="2.521543">
  <name>Ferme de Haute Viale</name>
  <desc>Ferme polyculture élevage Bovins Ovins Porcins Cultures</desc>
    <url>https://wwoof.fr/de/host/9279</url>
</wpt>
<wpt lat="47.7316811" lon="-1.5126045">
  <name>Le jardin des cistes</name>
  <desc>Jardin pédagogique, de 5000m²: verger, potager, serre. Cultivé en mode jardinage au naturel.</desc>
    <url>https://wwoof.fr/de/host/9277</url>
</wpt>
<wpt lat="43.75056" lon="-0.067583">
  <name>Légumes de toutan</name>
  <desc>Maraîchage biologique</desc>
    <url>https://wwoof.fr/de/host/9272</url>
</wpt>
<wpt lat="48.06653" lon="7.113002">
  <name>Ferme Gesellenmatt</name>
  <desc>Ferme de montagne en élevage bovin entièrement en traction animale bovine</desc>
    <url>https://wwoof.fr/de/host/9269</url>
</wpt>
<wpt lat="46.614821" lon="4.193553">
  <name>Domaine de Cristal</name>
  <desc>Micro ferme</desc>
    <url>https://wwoof.fr/de/host/9265</url>
</wpt>
<wpt lat="42.876753" lon="1.343133">
  <name>La Chticotte Bourdette</name>
  <desc>Micro-ferme vivrière</desc>
    <url>https://wwoof.fr/de/host/9264</url>
</wpt>
<wpt lat="47.7828876" lon="0.8942633">
  <name>Ferme du coteau Saint Gervais</name>
  <desc>La champignonnière devenue ferme troglodyte</desc>
    <url>https://wwoof.fr/de/host/9257</url>
</wpt>
<wpt lat="46.6483489" lon="-0.03501">
  <name>Ma campagne</name>
  <desc>Jardin potager, fruitière, jardin d'agréments, poules, poulets</desc>
    <url>https://wwoof.fr/de/host/9253</url>
</wpt>
<wpt lat="45.062176" lon="-0.281721">
  <name>La Ferme  de Salomon</name>
  <desc>Ferme biologique</desc>
    <url>https://wwoof.fr/de/host/9252</url>
</wpt>
<wpt lat="45.957921" lon="1.841516">
  <name>Les jardins de grand vallée</name>
  <desc>Micro ferme en maraichage et élevage</desc>
    <url>https://wwoof.fr/de/host/9251</url>
</wpt>
<wpt lat="43.614237" lon="-0.272186">
  <name>Ferme de Mirabeil</name>
  <desc>Agriculture naturelle, respectueuse de l'environnement suivant des méthodes agroécologiques</desc>
    <url>https://wwoof.fr/de/host/9248</url>
</wpt>
<wpt lat="44.933774" lon="0.089847">
  <name>Domaine Coquelicot</name>
  <desc>Ferme viticole dans le Périgord</desc>
    <url>https://wwoof.fr/de/host/9244</url>
</wpt>
<wpt lat="46.0325648" lon="2.7527725">
  <name>Ferme des Marceaux</name>
  <desc>Création d'une petite ferme vivrière de moyenne montagne</desc>
    <url>https://wwoof.fr/de/host/9243</url>
</wpt>
<wpt lat="43.8653459" lon="5.9459561">
  <name>Centre équestre des Hautes Plaines</name>
  <desc>Ecole d'équitation et de connaissance des chevaux, </desc>
    <url>https://wwoof.fr/de/host/9242</url>
</wpt>
<wpt lat="43.752626" lon="3.138993">
  <name>Les Jardins d'Emilien</name>
  <desc>Le jardin et le verger en Perma-culture et Agro-écologie, la ferme en conversion bio </desc>
    <url>https://wwoof.fr/de/host/9241</url>
</wpt>
<wpt lat="43.0023325" lon="0.5826613">
  <name>Le Jardin d 'Escoumanies'</name>
  <desc>Ferme en maraichage biologique,  production de plants et PPAM</desc>
    <url>https://wwoof.fr/de/host/9240</url>
</wpt>
<wpt lat="49.8285764" lon="0.9579919">
  <name>Ferme des Quatre Jingai EI Alexandre CLET</name>
  <desc>Ferme agroécologique en maraîchage fleuri</desc>
    <url>https://wwoof.fr/de/host/9238</url>
</wpt>
<wpt lat="44.1890983" lon="3.8586244">
  <name>Le Paiassou</name>
  <desc>Jardins, pain &amp; eco-construction</desc>
    <url>https://wwoof.fr/de/host/9237</url>
</wpt>
<wpt lat="44.863704" lon="5.833442">
  <name>GAEC des Vaches Trop Choux</name>
  <desc>Petite ferme de montagne avec un élevage de génisses </desc>
    <url>https://wwoof.fr/de/host/9232</url>
</wpt>
<wpt lat="43.950576" lon="6.038785">
  <name>Le Jardin de Pepo</name>
  <desc>Micro ferme en agroécologie dans les Alpes de Haute Provence</desc>
    <url>https://wwoof.fr/de/host/9231</url>
</wpt>
<wpt lat="46.871604" lon="-0.7151172">
  <name>GAEC La Ferme au l'Ouin</name>
  <desc>Ferme bio avec plantes aromatiques et volailles</desc>
    <url>https://wwoof.fr/de/host/9228</url>
</wpt>
<wpt lat="46.907837" lon="4.200159">
  <name>Ferme des Z'amis</name>
  <desc>Maraîchage Bio et poules pondeuses</desc>
    <url>https://wwoof.fr/de/host/9219</url>
</wpt>
<wpt lat="47.6047593" lon="3.6782536">
  <name>La ferme de Vincent</name>
  <desc>Ferme biologique certifiée</desc>
    <url>https://wwoof.fr/de/host/9214</url>
</wpt>
<wpt lat="46.333131" lon="0.208543">
  <name>La vallée de Guibert</name>
  <desc>Ferme biologique en élevage bovin dans une vallée avec son petit moulin transformé en gîte.</desc>
    <url>https://wwoof.fr/de/host/9212</url>
</wpt>
<wpt lat="45.380521" lon="4.685212">
  <name>Hameau Toucheboeuf</name>
  <desc>Domaine viticole certifié au cœur du parc naturel du Pilat.</desc>
    <url>https://wwoof.fr/de/host/9211</url>
</wpt>
<wpt lat="41.773692" lon="8.7591311">
  <name>EARL Oliu di vita</name>
  <desc>Ferme et habitation au coeur du maquis corse</desc>
    <url>https://wwoof.fr/de/host/9207</url>
</wpt>
<wpt lat="45.6612962" lon="5.6701028">
  <name>Chévrerie du Bugey</name>
  <desc>Petite exploitation caprine traditionnelle avec transformation fromagère et vente directe</desc>
    <url>https://wwoof.fr/de/host/9204</url>
</wpt>
<wpt lat="45.593327" lon="3.796069">
  <name>Le Combat</name>
  <desc>Maison au cœur du PNR du Livradois Forez</desc>
    <url>https://wwoof.fr/de/host/9203</url>
</wpt>
<wpt lat="49.1084542" lon="-0.8833381">
  <name>Le potager bio de Montrabot</name>
  <desc>Maraichage biologique en vente directe dans la Manche</desc>
    <url>https://wwoof.fr/de/host/9201</url>
</wpt>
<wpt lat="43.420224" lon="5.2946042">
  <name>La Spiruline de la Côte bleue</name>
  <desc>Ferme de spiruline et plein d'autres choses</desc>
    <url>https://wwoof.fr/de/host/9197</url>
</wpt>
<wpt lat="47.667433" lon="3.048434">
  <name>La Grande Grange</name>
  <desc>Apiculture</desc>
    <url>https://wwoof.fr/de/host/9195</url>
</wpt>
<wpt lat="49.647906" lon="2.358818">
  <name>Graine et grignote</name>
  <desc>Ferme biologique limite Oise et Somme</desc>
    <url>https://wwoof.fr/de/host/9194</url>
</wpt>
<wpt lat="48.9054714" lon="-1.3354825">
  <name>Le champ au loup</name>
  <desc>Ferme maraichere bio/Msv en bocage normand</desc>
    <url>https://wwoof.fr/de/host/9186</url>
</wpt>
<wpt lat="45.0870138" lon="1.0957021">
  <name>Foret Mifa Sol</name>
  <desc>Cabane foret jardin</desc>
    <url>https://wwoof.fr/de/host/9185</url>
</wpt>
<wpt lat="49.7820739" lon="1.1126936">
  <name>Les Amandiers</name>
  <desc>Ecolieu pédagogique associatif</desc>
    <url>https://wwoof.fr/de/host/9184</url>
</wpt>
<wpt lat="42.899282" lon="1.315368">
  <name>Hameau de jambès</name>
  <desc>Lieu en devenir dans les Pyrénées Ariégeoise</desc>
    <url>https://wwoof.fr/de/host/9182</url>
</wpt>
<wpt lat="44.6905075" lon="5.0911062">
  <name>La Ferme Bourbousson</name>
  <desc>Ferme biologique non certifiée</desc>
    <url>https://wwoof.fr/de/host/9180</url>
</wpt>