<?xml version="1.0"?>
<gpx version="1.1" creator="GDAL 3.4.1" xmlns:xsi="http://www.w3.org/2001/XMLSchema-instance" xmlns:ogr="http://osgeo.org/gdal" xmlns="http://www.topografix.com/GPX/1/1" xsi:schemaLocation="http://www.topografix.com/GPX/1/1 http://www.topografix.com/GPX/1/1/gpx.xsd">
<metadata><bounds minlat="39.669316000000002" minlon="-4.756226000000000" maxlat="50.425530000000002" maxlon="12.349335999999999"/></metadata>                  
<wpt lat="48.218401" lon="1.706315">
  <name>Sylviane IMBAULT</name>
  <desc>, VIABON . EOLE EN BEAUCE, 28150</desc>
    <url>https://www.warmshowers.org/user/139404</url>
</wpt>
<wpt lat="48.156889" lon="2.140104">
  <name>jb et marianne Bertrand</name>
  <desc>rue de la gouetterie, jouy en pithiverais, 45480</desc>
    <url>https://www.warmshowers.org/user/154054</url>
</wpt>
<wpt lat="47.986107" lon="2.046066">
  <name>Charles Patrigeon</name>
  <desc>7 rue des hachains, Rebréchien, 45470</desc>
    <url>https://www.warmshowers.org/user/128597</url>
</wpt>
<wpt lat="47.931513" lon="1.920754">
  <name>Dominique FOUQUET</name>
  <desc>, FLEURY LES AUBRAIS, 45400</desc>
    <url>https://www.warmshowers.org/user/147117</url>
</wpt>
<wpt lat="47.924114" lon="1.892706">
  <name>Kim Deshayes </name>
  <desc>2 rue du capitaine de Boissieu, Orléans, 45000</desc>
    <url>https://www.warmshowers.org/user/220825</url>
</wpt>
<wpt lat="47.923648" lon="1.899381">
  <name>Audrey B.</name>
  <desc>Rue Lazare Carnot, Fleury les Aubrais, 45400</desc>
    <url>https://www.warmshowers.org/user/43536</url>
</wpt>
<wpt lat="47.920407" lon="1.963357">
  <name>Laurent Cousin</name>
  <desc>rue Alphonse Daudet, Saint Jean de Braye, 45800</desc>
    <url>https://www.warmshowers.org/user/59857</url>
</wpt>
<wpt lat="48.368074" lon="1.868356">
  <name>Loïc Pruneau</name>
  <desc>, LETHUIN, </desc>
    <url>https://www.warmshowers.org/user/151107</url>
</wpt>
<wpt lat="47.912216" lon="1.919554">
  <name>Bruno Le Duc</name>
  <desc>11 boulevard Marie Stuart , Orléans , 45000</desc>
    <url>https://www.warmshowers.org/user/44370</url>
</wpt>
<wpt lat="47.910833" lon="1.915798">
  <name>Marie David</name>
  <desc>, Orleans, 45000</desc>
    <url>https://www.warmshowers.org/user/256364</url>
</wpt>
<wpt lat="47.910833" lon="1.915798">
  <name>Jose Gomez</name>
  <desc>, Orleans, 45000</desc>
    <url>https://www.warmshowers.org/user/239135</url>
</wpt>
<wpt lat="47.910833" lon="1.915798">
  <name>Alain NOEL</name>
  <desc>, ORLEANS, 45000</desc>
    <url>https://www.warmshowers.org/user/12893</url>
</wpt>
<wpt lat="47.910833" lon="1.915798">
  <name>Vivien J.</name>
  <desc>, Orléans, 45000</desc>
    <url>https://www.warmshowers.org/user/131457</url>
</wpt>
<wpt lat="47.910833" lon="1.915798">
  <name>Adeline MOREAU</name>
  <desc>, Orléans, 45000</desc>
    <url>https://www.warmshowers.org/user/154562</url>
</wpt>
<wpt lat="47.910833" lon="1.915798">
  <name>Jane sou</name>
  <desc>, ORLEANS, 45000</desc>
    <url>https://www.warmshowers.org/user/201557</url>
</wpt>
<wpt lat="47.909953" lon="1.893686">
  <name>Nicolas Milhaud</name>
  <desc>Rue de gaucourt, Orleans, 45000</desc>
    <url>https://www.warmshowers.org/user/102769</url>
</wpt>
<wpt lat="47.914773" lon="1.975445">
  <name>RAPHAEL DIMIER</name>
  <desc>, SAINT JEAN DE BRAYE, 45800</desc>
    <url>https://www.warmshowers.org/user/145315</url>
</wpt>
<wpt lat="48.067586" lon="2.227351">
  <name>Vincent Bailly</name>
  <desc>14 L’Arbre Sec, Courcy-aux-Loges, 45300</desc>
    <url>https://www.warmshowers.org/user/248337</url>
</wpt>
<wpt lat="47.90289" lon="1.90389">
  <name>Philippe Villevalois</name>
  <desc>, ORLEANS, 45000</desc>
    <url>https://www.warmshowers.org/user/247875</url>
</wpt>
<wpt lat="47.902964" lon="1.909251">
  <name>Sandrine K.</name>
  <desc>, Orléans, </desc>
    <url>https://www.warmshowers.org/user/63248</url>
</wpt>
<wpt lat="47.902964" lon="1.909251">
  <name>Bruno Muller</name>
  <desc>, Orleans, </desc>
    <url>https://www.warmshowers.org/user/169894</url>
</wpt>
<wpt lat="47.90148" lon="1.883549">
  <name>XAVIER ARMAND</name>
  <desc>19 VENELLE DE LA COUTURE, ORLEANS, 45000</desc>
    <url>https://www.warmshowers.org/user/194319</url>
</wpt>
<wpt lat="47.901211" lon="1.924966">
  <name>Brendan LEVEC</name>
  <desc>14 rue Charles Peguy, Orléans, 45000</desc>
    <url>https://www.warmshowers.org/user/213250</url>
</wpt>
<wpt lat="47.898238" lon="1.866904">
  <name>Pauline et Jordi</name>
  <desc>25 rue de la butte, Orleans , 45140</desc>
    <url>https://www.warmshowers.org/user/156257</url>
</wpt>
<wpt lat="48.341113" lon="2.104307">
  <name>Arnaud Lefevre</name>
  <desc>chemin de Bossenval, Méréville, 91660</desc>
    <url>https://www.warmshowers.org/user/35502</url>
</wpt>
<wpt lat="47.890889" lon="1.925239">
  <name>Christophe Tallet</name>
  <desc>, saint jean le blanc, 45650</desc>
    <url>https://www.warmshowers.org/user/190800</url>
</wpt>
<wpt lat="47.890792" lon="1.840547">
  <name>Marie Dominique DORVAL</name>
  <desc>, LA CHAPELLE ST MESMIN, 45380</desc>
    <url>https://www.warmshowers.org/user/164252</url>
</wpt>
<wpt lat="47.88854" lon="1.882876">
  <name>Muriel Rouze et Gregory Barrier</name>
  <desc>17 rue de la pepiniere, St Pryvé St Mesmin (ORLEANS), 45750</desc>
    <url>https://www.warmshowers.org/user/43428</url>
</wpt>
<wpt lat="47.903491" lon="2.020817">
  <name>Myriam EL BAY</name>
  <desc>5 allée du capitole, Checy, 45430</desc>
    <url>https://www.warmshowers.org/user/259313</url>
</wpt>
<wpt lat="47.888925" lon="1.827226">
  <name>Adelaide CREUSAT</name>
  <desc>Avenue de la Rivière des Bois, LA CHAPELLE SAINT MESMIN, 45380</desc>
    <url>https://www.warmshowers.org/user/202109</url>
</wpt>
<wpt lat="47.97591" lon="2.181913">
  <name>Stéphane Félix</name>
  <desc>, sully la chapelle, 45450</desc>
    <url>https://www.warmshowers.org/user/258467</url>
</wpt>
<wpt lat="47.885377" lon="1.90472">
  <name>Olivier Dimitroff</name>
  <desc>15 route d'Olivet, Orléans, 45100</desc>
    <url>https://www.warmshowers.org/user/206564</url>
</wpt>
<wpt lat="47.93144" lon="1.66464">
  <name>granet sebastien</name>
  <desc>, le bardon, 45130</desc>
    <url>https://www.warmshowers.org/user/127928</url>
</wpt>
<wpt lat="47.881676" lon="1.922967">
  <name>Sofiane Baaziz</name>
  <desc>Varennes , Saint jean le blanc, 45650</desc>
    <url>https://www.warmshowers.org/user/197862</url>
</wpt>
<wpt lat="47.891459" lon="2.025287">
  <name>COUEGNAT MARIE</name>
  <desc>, CHECY, 45430</desc>
    <url>https://www.warmshowers.org/user/86374</url>
</wpt>
<wpt lat="47.87525" lon="1.972707">
  <name>MARIE-CLAIRE THIERCELIN</name>
  <desc>, SAINT DENIS EN VAL, 45560</desc>
    <url>https://www.warmshowers.org/user/118482</url>
</wpt>
<wpt lat="48.239566" lon="1.50918">
  <name>Bernard Cordier </name>
  <desc>3 place st georges, Le Gault St Denis, 28800</desc>
    <url>https://www.warmshowers.org/user/200573</url>
</wpt>
<wpt lat="47.86944" lon="1.837931">
  <name>genevieve et francois CRIBIER</name>
  <desc>, st hilaire st mesmin, 45160</desc>
    <url>https://www.warmshowers.org/user/83029</url>
</wpt>
<wpt lat="47.865408" lon="1.897565">
  <name>Tanguy Pichavant</name>
  <desc>, Olivet, 45160</desc>
    <url>https://www.warmshowers.org/user/259836</url>
</wpt>
<wpt lat="48.400112" lon="1.705712">
  <name>Tisseau Lena</name>
  <desc>1, rue Claude, Voise, 28700</desc>
    <url>https://www.warmshowers.org/user/13535</url>
</wpt>
<wpt lat="47.84133" lon="1.932659">
  <name>Laurent Boron</name>
  <desc>, Orléans, 45100</desc>
    <url>https://www.warmshowers.org/user/198790</url>
</wpt>
<wpt lat="47.891509" lon="2.168564">
  <name>Stefano Maurizio</name>
  <desc>, Saint Denis de l’Hôtel, 45550</desc>
    <url>https://www.warmshowers.org/user/257496</url>
</wpt>
<wpt lat="47.832055" lon="1.969085">
  <name>Chloé Bolcato</name>
  <desc>, Saint-cyr-en-val, </desc>
    <url>https://www.warmshowers.org/user/227954</url>
</wpt>
<wpt lat="47.868482" lon="2.137245">
  <name>Sébastien MICHENET</name>
  <desc>9 rue des Vignes, Saint Denis de l'Hôtel, 45550</desc>
    <url>https://www.warmshowers.org/user/164372</url>
</wpt>
<wpt lat="47.845556" lon="1.700826">
  <name>Stéphanie Vangheluwe </name>
  <desc>Route de la Batissière, Meung-sur-Loire , 45130</desc>
    <url>https://www.warmshowers.org/user/114924</url>
</wpt>
<wpt lat="47.822657" lon="1.765238">
  <name>Justine Bigaud</name>
  <desc>363 rue des bonshommes , Cléry saint andré, 45370</desc>
    <url>https://www.warmshowers.org/user/278337</url>
</wpt>
<wpt lat="48.453364" lon="2.059173">
  <name>Jean-François LAURENT</name>
  <desc>, BOUTERVILLIERS, 91150</desc>
    <url>https://www.warmshowers.org/user/203946</url>
</wpt>
<wpt lat="48.434416" lon="2.16142">
  <name>Richie Whitehead</name>
  <desc>, Etampes , </desc>
    <url>https://www.warmshowers.org/user/259870</url>
</wpt>
<wpt lat="48.434416" lon="2.16142">
  <name>Halima Martha Habil</name>
  <desc>, Étampes, NONE</desc>
    <url>https://www.warmshowers.org/user/262581</url>
</wpt>
<wpt lat="48.432455" lon="2.168298">
  <name>Marie-Lou TURKSON</name>
  <desc>2 rue des barricades , Etampes , 91150 </desc>
    <url>https://www.warmshowers.org/user/269523</url>
</wpt>
<wpt lat="47.865635" lon="2.219056">
  <name>Huafu Gandon</name>
  <desc>La Billette, rue de Gabereau, Châteauneuf-sur-Loire, 45110</desc>
    <url>https://www.warmshowers.org/user/211831</url>
</wpt>
<wpt lat="48.378001" lon="1.486229">
  <name>yves marie billard</name>
  <desc>1 rue du polissoir, Vers les chartres, 28630</desc>
    <url>https://www.warmshowers.org/user/66256</url>
</wpt>
<wpt lat="48.446435" lon="2.182903">
  <name>Loreau Valérie et Jean Yves</name>
  <desc>14 rue du pressoir , Morigny Champigny , 91150</desc>
    <url>https://www.warmshowers.org/user/246757</url>
</wpt>
<wpt lat="48.229348" lon="1.355299">
  <name>Didier LASCAUX</name>
  <desc>3 rue des glaniers, alluyes, 28800</desc>
    <url>https://www.warmshowers.org/user/121994</url>
</wpt>
<wpt lat="48.378961" lon="1.454247">
  <name>RINGENBACH Aurélie </name>
  <desc>Rue de La Croix au cerf, Thivars, 28630</desc>
    <url>https://www.warmshowers.org/user/257888</url>
</wpt>
<wpt lat="47.799992" lon="2.133613">
  <name>Yannick BARBIER</name>
  <desc>, Vienne en Val, 45510</desc>
    <url>https://www.warmshowers.org/user/150491</url>
</wpt>
<wpt lat="48.44169" lon="1.493415">
  <name>Cyril Verniau</name>
  <desc>8 rue jules martin, chartres, 28000</desc>
    <url>https://www.warmshowers.org/user/219306</url>
</wpt>
<wpt lat="48.443854" lon="1.489012">
  <name>Mathilde Le Pivain</name>
  <desc>, Chartres, 28000</desc>
    <url>https://www.warmshowers.org/user/246876</url>
</wpt>
<wpt lat="48.443854" lon="1.489012">
  <name>Elo Jjk</name>
  <desc>, Chartres, 28000</desc>
    <url>https://www.warmshowers.org/user/249938</url>
</wpt>
<wpt lat="48.52622" lon="1.69307">
  <name>François CHOJNOWSKI</name>
  <desc>, BAILLEAU ARMENONVILLE , 28320</desc>
    <url>https://www.warmshowers.org/user/164533</url>
</wpt>
<wpt lat="47.993349" lon="2.476385">
  <name>Flore et Raphaël</name>
  <desc>, Ouzouer Sous Bellegarde, 45270</desc>
    <url>https://www.warmshowers.org/user/122588</url>
</wpt>
<wpt lat="48.014394" lon="2.488883">
  <name>Amandine Delaveau</name>
  <desc>17 impasse de Montigny, Mezieres en gatinais, 45270</desc>
    <url>https://www.warmshowers.org/user/220127</url>
</wpt>
<wpt lat="48.493274" lon="1.531332">
  <name>Patrick Ychard</name>
  <desc>, Saint Prest, 28300</desc>
    <url>https://www.warmshowers.org/user/257878</url>
</wpt>
<wpt lat="48.572076" lon="1.947192">
  <name>Anny POURSINOFF</name>
  <desc>7, rue du Grand Saint Nicolas, Saint Arnoult en Yvelines, 78730</desc>
    <url>https://www.warmshowers.org/user/79061</url>
</wpt>
<wpt lat="48.516505" lon="2.220898">
  <name>Emeline et Florian</name>
  <desc>, Chamarande, </desc>
    <url>https://www.warmshowers.org/user/217829</url>
</wpt>
<wpt lat="48.381548" lon="2.475284">
  <name>françois fagundes</name>
  <desc>, oncy sur ecole, 91490</desc>
    <url>https://www.warmshowers.org/user/141501</url>
</wpt>
<wpt lat="48.591612" lon="2.015117">
  <name>Patricia MILLOT</name>
  <desc>7 rue du lavoir, LONGVILLIERS, 78730</desc>
    <url>https://www.warmshowers.org/user/177009</url>
</wpt>
<wpt lat="48.560143" lon="2.183599">
  <name>Arnaud Marie</name>
  <desc>, saint yon, 91650</desc>
    <url>https://www.warmshowers.org/user/136208</url>
</wpt>
<wpt lat="48.35528" lon="2.519083">
  <name>Nicolas Madelaine</name>
  <desc>, Le Vaudoué, 77123</desc>
    <url>https://www.warmshowers.org/user/81394</url>
</wpt>
<wpt lat="47.956754" lon="1.239626">
  <name>Margaux Mantel</name>
  <desc>, Saint-Jean-Froidmentel, 41160</desc>
    <url>https://www.warmshowers.org/user/202850</url>
</wpt>
<wpt lat="48.596419" lon="1.692557">
  <name>Patricia BIDEAU</name>
  <desc>, EPERNON, 28230</desc>
    <url>https://www.warmshowers.org/user/91527</url>
</wpt>
<wpt lat="48.489577" lon="1.39592">
  <name>Karim tisseau</name>
  <desc>, Bailleau-l'Évêque , 28300 </desc>
    <url>https://www.warmshowers.org/user/245432</url>
</wpt>
<wpt lat="48.580674" lon="2.228926">
  <name>Vincent DESCAMPS</name>
  <desc>9, rue Molière, zac Saint Pierre, Égly, 91520</desc>
    <url>https://www.warmshowers.org/user/269554</url>
</wpt>
<wpt lat="48.490269" lon="2.416144">
  <name>Francis Rodier</name>
  <desc>, Mondeville, 91590</desc>
    <url>https://www.warmshowers.org/user/120436</url>
</wpt>
<wpt lat="47.763082" lon="2.373936">
  <name>STEENBRUGGE Emmanuel et Hélène</name>
  <desc>, Sully-sur-Loire, </desc>
    <url>https://www.warmshowers.org/user/172436</url>
</wpt>
<wpt lat="47.763082" lon="2.373936">
  <name>Hélène Letourneau</name>
  <desc>, SULLY SUR LOIRE, 45600</desc>
    <url>https://www.warmshowers.org/user/198685</url>
</wpt>
<wpt lat="47.763082" lon="2.373936">
  <name>julien bourdeaux</name>
  <desc>, sully sur loire, 45600</desc>
    <url>https://www.warmshowers.org/user/231315</url>
</wpt>
<wpt lat="48.355026" lon="2.565782">
  <name>Fanny Chantemargue</name>
  <desc>Rue de la Maison blanche, Achères la Foret, 77760</desc>
    <url>https://www.warmshowers.org/user/267474</url>
</wpt>
<wpt lat="48.638923" lon="1.825559">
  <name>Andreas Moser</name>
  <desc>25 Rue de l’an Sabliere, Rambouillet , 78120</desc>
    <url>https://www.warmshowers.org/user/239401</url>
</wpt>
<wpt lat="48.643868" lon="1.829079">
  <name>JEAN MICHEL DESRUET</name>
  <desc>, RAMBOUILLET, 78120</desc>
    <url>https://www.warmshowers.org/user/220204</url>
</wpt>
<wpt lat="48.643868" lon="1.829079">
  <name>Benjamin Girardin</name>
  <desc>, Rambouillet, 78120</desc>
    <url>https://www.warmshowers.org/user/145712</url>
</wpt>
<wpt lat="48.476008" lon="2.49154">
  <name>Jipé SAMEL</name>
  <desc>1 rue de la Ferté-Alais, Soisy sur Ecole, 91840</desc>
    <url>https://www.warmshowers.org/user/39568</url>
</wpt>
<wpt lat="47.963659" lon="2.626058">
  <name>Francois Chauveau</name>
  <desc>48 grande rue, chevillon sur huillard, 45700</desc>
    <url>https://www.warmshowers.org/user/272720</url>
</wpt>
<wpt lat="48.23333" lon="2.66667">
  <name>Mathilde Tallet et José Perez</name>
  <desc>, Fay les Nemours, 77167</desc>
    <url>https://www.warmshowers.org/user/236179</url>
</wpt>
<wpt lat="48.320506" lon="2.647683">
  <name>Philippe AUBIN</name>
  <desc>, Villiers sous grez, 77760</desc>
    <url>https://www.warmshowers.org/user/76697</url>
</wpt>
<wpt lat="48.594145" lon="1.449936">
  <name>Sarah-Lou Guimbard</name>
  <desc>Rue des Lierres, Bouconville , 28170 </desc>
    <url>https://www.warmshowers.org/user/269686</url>
</wpt>
<wpt lat="47.863993" lon="1.183865">
  <name>Toinon Debenne</name>
  <desc>, Lignières, 41160</desc>
    <url>https://www.warmshowers.org/user/238817</url>
</wpt>
<wpt lat="48.148391" lon="2.71267">
  <name>Pankaj Sharma</name>
  <desc>18 Rue des Martins, Château Landon, 77570</desc>
    <url>https://www.warmshowers.org/user/63462</url>
</wpt>
<wpt lat="48.267043" lon="2.692611">
  <name>Hernandez jeremy </name>
  <desc>, NEMOURS, 77140</desc>
    <url>https://www.warmshowers.org/user/231464</url>
</wpt>
<wpt lat="48.267043" lon="2.692611">
  <name>PASCAL VICQ</name>
  <desc>, NEMOURS, 77140</desc>
    <url>https://www.warmshowers.org/user/153276</url>
</wpt>
<wpt lat="48.690282" lon="1.83733">
  <name>Gérard Le Bihanic</name>
  <desc>47, rue du rotoir, Le Perray, 78610</desc>
    <url>https://www.warmshowers.org/user/82526</url>
</wpt>
<wpt lat="48.638324" lon="2.271502">
  <name>Anthony Sendra</name>
  <desc>, Montlhery, </desc>
    <url>https://www.warmshowers.org/user/255121</url>
</wpt>
<wpt lat="48.700486" lon="1.889047">
  <name>Béatrice et Xavier TROSSEILLE</name>
  <desc>9 Allée des Comtes de Montfort, Auffargis, 78610</desc>
    <url>https://www.warmshowers.org/user/17175</url>
</wpt>
<wpt lat="48.630841" lon="2.309194">
  <name>Christophe et Clémentine</name>
  <desc>, saint michel sur orge, 91240</desc>
    <url>https://www.warmshowers.org/user/69330</url>
</wpt>
<wpt lat="48.696183" lon="2.036018">
  <name>Mariuca de Hillerin</name>
  <desc>, Choisel, 78460</desc>
    <url>https://www.warmshowers.org/user/267377</url>
</wpt>
<wpt lat="48.702481" lon="1.981019">
  <name>laurent Flieder</name>
  <desc>1 rue de l'érable, Dampierre en yvelines, 78720</desc>
    <url>https://www.warmshowers.org/user/222868</url>
</wpt>
<wpt lat="48.445482" lon="2.6063">
  <name>Cléa Gentile</name>
  <desc>4 rue René-Ménard, Barbizon, 77630</desc>
    <url>https://www.warmshowers.org/user/47297</url>
</wpt>
<wpt lat="47.985595" lon="2.704427">
  <name>Ilan Pierres</name>
  <desc>14bis rue des déportés, Villemandeur, 45700</desc>
    <url>https://www.warmshowers.org/user/253110</url>
</wpt>
<wpt lat="48.332409" lon="2.695036">
  <name>Jean-Marie chabot</name>
  <desc>, Bourron-Marlotte, 77780</desc>
    <url>https://www.warmshowers.org/user/161345</url>
</wpt>
<wpt lat="48.388088" lon="2.661307">
  <name>Romain Piro</name>
  <desc>, Fontainebleau , 77300</desc>
    <url>https://www.warmshowers.org/user/277895</url>
</wpt>
<wpt lat="48.68604" lon="2.144688">
  <name>blandine rombauts</name>
  <desc>23 avenue de villeneuve , Bures sur yvette, 91440</desc>
    <url>https://www.warmshowers.org/user/264559</url>
</wpt>
<wpt lat="48.702575" lon="2.069613">
  <name>Nicolas Augereau</name>
  <desc>, Saint-Rémy-lès-Chevreuse, 78470</desc>
    <url>https://www.warmshowers.org/user/199287</url>
</wpt>
<wpt lat="48.702575" lon="2.069613">
  <name>Caroline &amp; co</name>
  <desc>, St-Rémy-les-Chevreuse, 78470</desc>
    <url>https://www.warmshowers.org/user/228846</url>
</wpt>
<wpt lat="48.646448" lon="2.305264">
  <name>Isabelle Huon</name>
  <desc>Allée du val, Sainte Geneviève des bois , 91700</desc>
    <url>https://www.warmshowers.org/user/88276</url>
</wpt>
<wpt lat="47.895722" lon="1.10777">
  <name>Louise Lapierre</name>
  <desc>L'essert, LA VILLE AUX CLERCS, 41160</desc>
    <url>https://www.warmshowers.org/user/156859</url>
</wpt>
<wpt lat="48.640842" lon="2.325921">
  <name>Geoffrey DAVID</name>
  <desc>, sainte genevieve des bois, 91700</desc>
    <url>https://www.warmshowers.org/user/149651</url>
</wpt>
<wpt lat="48.640842" lon="2.325921">
  <name>Bérenger De Wilde</name>
  <desc>, Sainte genevieve des Bois, 91700</desc>
    <url>https://www.warmshowers.org/user/253355</url>
</wpt>
<wpt lat="48.109367" lon="2.75711">
  <name>Emberger Camille</name>
  <desc>, Nargis, 45210</desc>
    <url>https://www.warmshowers.org/user/164396</url>
</wpt>
<wpt lat="47.99729" lon="2.736291">
  <name>valentin pion</name>
  <desc>, montargis, 45200</desc>
    <url>https://www.warmshowers.org/user/260431</url>
</wpt>
<wpt lat="48.701844" lon="2.134078">
  <name>Augustin Godinot</name>
  <desc>, Gif-sur-Yvette, 91190</desc>
    <url>https://www.warmshowers.org/user/222311</url>
</wpt>
<wpt lat="48.696893" lon="2.163977">
  <name>Vincent Gabard</name>
  <desc>, Bures sur yvette, </desc>
    <url>https://www.warmshowers.org/user/126835</url>
</wpt>
<wpt lat="48.720188" lon="1.764365">
  <name>Serge Wojciechowski</name>
  <desc>12 rue Octave Allaire, Saint-Léger-en-Yvelines, 78610</desc>
    <url>https://www.warmshowers.org/user/249367</url>
</wpt>
<wpt lat="48.617871" lon="2.407091">
  <name>sophie JOLLEC</name>
  <desc>, Courcouronnes, 91080</desc>
    <url>https://www.warmshowers.org/user/99441</url>
</wpt>
<wpt lat="48.733716" lon="1.877435">
  <name>Nelly Constans</name>
  <desc>rue de châtillon, Saint-Rémy-L'Honoré, 78690</desc>
    <url>https://www.warmshowers.org/user/270939</url>
</wpt>
<wpt lat="48.69567" lon="2.212128">
  <name>Susie Van Gheluwe</name>
  <desc>4 rue Daubigny, Villebon sur Yvette, 91140</desc>
    <url>https://www.warmshowers.org/user/255558</url>
</wpt>
<wpt lat="48.333645" lon="2.734374">
  <name>Dos Santos Mickael</name>
  <desc>Rue des cormiers , Montigny sur loing , 77690</desc>
    <url>https://www.warmshowers.org/user/265152</url>
</wpt>
<wpt lat="48.714637" lon="2.126336">
  <name>Bea Bertaux</name>
  <desc>gif sur yvette, Gif sur Yvette, 91190</desc>
    <url>https://www.warmshowers.org/user/218926</url>
</wpt>
<wpt lat="48.714637" lon="2.126336">
  <name>Héloïse Muller</name>
  <desc>, Gif-sur-Yvette, 91190</desc>
    <url>https://www.warmshowers.org/user/158098</url>
</wpt>
<wpt lat="48.714637" lon="2.126336">
  <name>TAMET Robert</name>
  <desc>, gif sur yvette, 91190</desc>
    <url>https://www.warmshowers.org/user/147974</url>
</wpt>
<wpt lat="48.714637" lon="2.126336">
  <name>justine beaujoin</name>
  <desc>, GIF SUR YVETTE, 91190</desc>
    <url>https://www.warmshowers.org/user/177997</url>
</wpt>
<wpt lat="48.708166" lon="2.161028">
  <name>Ian Danilevicz</name>
  <desc>1 Joliot Curie, Gif-sur-yvette, 91190</desc>
    <url>https://www.warmshowers.org/user/41227</url>
</wpt>
<wpt lat="47.635845" lon="2.362878">
  <name>patricia et jean-claude vallée</name>
  <desc>6 route d'Argent, SAINTE MONTAINE, 18700</desc>
    <url>https://www.warmshowers.org/user/247685</url>
</wpt>
<wpt lat="48.115008" lon="2.785221">
  <name>Philippe Conerardy</name>
  <desc>28 route de Dordives, Ferrières-en-Gâtinais, 45210</desc>
    <url>https://www.warmshowers.org/user/275398</url>
</wpt>
<wpt lat="48.601812" lon="2.467971">
  <name>Jacques DUPRE</name>
  <desc>8 rue Henri Cherriere, CORBEIL ESSONNES, 91100</desc>
    <url>https://www.warmshowers.org/user/35482</url>
</wpt>
<wpt lat="48.697055" lon="2.229724">
  <name>Jason Renault-Hérisson</name>
  <desc>, Villebon-sur-Yvette, 91140</desc>
    <url>https://www.warmshowers.org/user/223508</url>
</wpt>
<wpt lat="48.092455" lon="2.787271">
  <name>Christiane SELLIER</name>
  <desc>rue du petit saint Fiacre, FERRIERES en GÂtINAIS, 45210</desc>
    <url>https://www.warmshowers.org/user/72528</url>
</wpt>
<wpt lat="48.404676" lon="2.70162">
  <name>Sandra Jacques</name>
  <desc>, Fontainebleau , </desc>
    <url>https://www.warmshowers.org/user/276547</url>
</wpt>
<wpt lat="48.090359" lon="2.789813">
  <name>Tiphaine et Vincent Pétin</name>
  <desc>, Ferrières en Gâtinais, 45210</desc>
    <url>https://www.warmshowers.org/user/64239</url>
</wpt>
<wpt lat="48.558093" lon="2.549623">
  <name>Philippe Maire</name>
  <desc>, Seine-Port, </desc>
    <url>https://www.warmshowers.org/user/260641</url>
</wpt>
<wpt lat="47.976764" lon="2.764763">
  <name>Guillaume Sampé</name>
  <desc>228 Boulevard Mendès France, AMILLY, 45200</desc>
    <url>https://www.warmshowers.org/user/109380</url>
</wpt>
<wpt lat="48.622221" lon="2.452209">
  <name>Pierre-Louis et Léonie</name>
  <desc>Rue du Bel Air, Evry, 91000</desc>
    <url>https://www.warmshowers.org/user/257694</url>
</wpt>
<wpt lat="48.61026" lon="2.474805">
  <name>Paul CREUSVAUX </name>
  <desc>, Corbeil-Essonnes , 91100</desc>
    <url>https://www.warmshowers.org/user/275204</url>
</wpt>
<wpt lat="48.714297" lon="2.211292">
  <name>Antonin Boissin</name>
  <desc>Route de Polytechnique , PALaiseau, 91128</desc>
    <url>https://www.warmshowers.org/user/208605</url>
</wpt>
<wpt lat="48.645663" lon="2.410451">
  <name>Dubois Gladys </name>
  <desc>, Ris orangis, 91130</desc>
    <url>https://www.warmshowers.org/user/166060</url>
</wpt>
<wpt lat="48.404839" lon="2.720733">
  <name>Meillan Philippe</name>
  <desc>, Avon, 77210</desc>
    <url>https://www.warmshowers.org/user/273034</url>
</wpt>
<wpt lat="48.404839" lon="2.720733">
  <name>Sébastien NOËL</name>
  <desc>, AVON, 77210</desc>
    <url>https://www.warmshowers.org/user/77078</url>
</wpt>
<wpt lat="48.404839" lon="2.720733">
  <name>François FOURMENTIN</name>
  <desc>, AVON, </desc>
    <url>https://www.warmshowers.org/user/256413</url>
</wpt>
<wpt lat="48.404839" lon="2.720733">
  <name>Pierre Lefrand</name>
  <desc>, Avon, 77210</desc>
    <url>https://www.warmshowers.org/user/143105</url>
</wpt>
<wpt lat="48.404839" lon="2.720733">
  <name>Emeric Brun</name>
  <desc>, Avon, 77210</desc>
    <url>https://www.warmshowers.org/user/275152</url>
</wpt>
<wpt lat="48.404839" lon="2.720733">
  <name>Marie Devillard</name>
  <desc>, Avon, 77210</desc>
    <url>https://www.warmshowers.org/user/226519</url>
</wpt>
<wpt lat="48.404839" lon="2.720733">
  <name>Thomas WATTIER</name>
  <desc>, Avon, </desc>
    <url>https://www.warmshowers.org/user/269692</url>
</wpt>
<wpt lat="48.712749" lon="2.226511">
  <name>Soizic Chiche</name>
  <desc>, Palaiseau, 91120</desc>
    <url>https://www.warmshowers.org/user/115700</url>
</wpt>
<wpt lat="48.409132" lon="2.724596">
  <name>Jean-Baptiste, Juliette et les enfants</name>
  <desc>33 Rue Carnot, Avon, 77210</desc>
    <url>https://www.warmshowers.org/user/225626</url>
</wpt>
<wpt lat="48.758344" lon="2.044472">
  <name>T colin</name>
  <desc>, voisins le bretonneux, 78960</desc>
    <url>https://www.warmshowers.org/user/231825</url>
</wpt>
<wpt lat="48.73668" lon="2.180034">
  <name>Julien Rouyer</name>
  <desc>, Saclay, 91400</desc>
    <url>https://www.warmshowers.org/user/255648</url>
</wpt>
<wpt lat="48.734116" lon="2.207353">
  <name>Sabine Arrondelle</name>
  <desc>&amp;&quot;, Vauhallan, 91430</desc>
    <url>https://www.warmshowers.org/user/52657</url>
</wpt>
<wpt lat="48.627498" lon="2.492031">
  <name>Julien Talpe</name>
  <desc>, Saint-Germain-lès-Corbeil, 91250</desc>
    <url>https://www.warmshowers.org/user/158553</url>
</wpt>
<wpt lat="47.692205" lon="2.550141">
  <name>Anne Percher</name>
  <desc>790 chemin des plantes, Saint Gondon, 45500</desc>
    <url>https://www.warmshowers.org/user/38494</url>
</wpt>
<wpt lat="48.763992" lon="2.051903">
  <name>Antoine Vretman</name>
  <desc>75 rue de la piece du parc, Voisins le Bretonneux, 78960</desc>
    <url>https://www.warmshowers.org/user/142102</url>
</wpt>
<wpt lat="48.726777" lon="2.251782">
  <name>Yves et Juliette FEIEREISEN-DESPRES</name>
  <desc>allée des Alysses, MASSY, 91300</desc>
    <url>https://www.warmshowers.org/user/72311</url>
</wpt>
<wpt lat="48.708545" lon="2.312727">
  <name>Katrin Guntershausen</name>
  <desc>, Chilly-Mazarin, 91380</desc>
    <url>https://www.warmshowers.org/user/259865</url>
</wpt>
<wpt lat="48.772563" lon="1.815425">
  <name>Melvine Beramice</name>
  <desc>, Montfort-L'Amaury, 78490</desc>
    <url>https://www.warmshowers.org/user/237555</url>
</wpt>
<wpt lat="48.721689" lon="2.283056">
  <name>Vincent Abbon</name>
  <desc>, Massy, 91300</desc>
    <url>https://www.warmshowers.org/user/262658</url>
</wpt>
<wpt lat="48.721689" lon="2.283056">
  <name>Marine Rebillard</name>
  <desc>, Massy, 91300</desc>
    <url>https://www.warmshowers.org/user/197506</url>
</wpt>
<wpt lat="48.721689" lon="2.283056">
  <name>Sarah MOREIRA</name>
  <desc>, Palaiseau, 91300</desc>
    <url>https://www.warmshowers.org/user/139424</url>
</wpt>
<wpt lat="48.721689" lon="2.283056">
  <name>Charlène LEMASSON</name>
  <desc>, Massy, 91300</desc>
    <url>https://www.warmshowers.org/user/272943</url>
</wpt>
<wpt lat="48.692263" lon="2.372883">
  <name>Elisabeth Condamines</name>
  <desc>, Juvisy, 91260</desc>
    <url>https://www.warmshowers.org/user/264380</url>
</wpt>
<wpt lat="48.727451" lon="2.268416">
  <name>Emilie et Nicolas</name>
  <desc>Rue Magellan, Massy, 91300</desc>
    <url>https://www.warmshowers.org/user/222924</url>
</wpt>
<wpt lat="48.776545" lon="1.802627">
  <name>Alice &amp; Paulin</name>
  <desc>Rue Maurice Ravel, MONTFORT L'AMAURY, 78490</desc>
    <url>https://www.warmshowers.org/user/127842</url>
</wpt>
<wpt lat="48.773873" lon="2.036016">
  <name>Sophie Viajera</name>
  <desc>, Montigny-le-Bx, </desc>
    <url>https://www.warmshowers.org/user/257450</url>
</wpt>
<wpt lat="48.488211" lon="2.699565">
  <name>ursula dehn</name>
  <desc>, Chartrettes, 77590</desc>
    <url>https://www.warmshowers.org/user/136743</url>
</wpt>
<wpt lat="48.770736" lon="2.080362">
  <name>Fabien F</name>
  <desc>, Guyancourt , 78280</desc>
    <url>https://www.warmshowers.org/user/173919</url>
</wpt>
<wpt lat="48.775166" lon="2.057724">
  <name>BOURDON Marie-Claude et Jean-Louis</name>
  <desc>9 rue Francis Poulenc, Guyancourt, 78280</desc>
    <url>https://www.warmshowers.org/user/206224</url>
</wpt>
<wpt lat="48.530522" lon="2.661737">
  <name>Anne POURCELOT</name>
  <desc>, Melun, 77000</desc>
    <url>https://www.warmshowers.org/user/268541</url>
</wpt>
<wpt lat="48.785094" lon="1.825657">
  <name>Martin de Combarieu</name>
  <desc>, Paris, </desc>
    <url>https://www.warmshowers.org/user/259528</url>
</wpt>
<wpt lat="48.377846" lon="2.795161">
  <name>Pierre Benreguig</name>
  <desc>, Veneux les Sablons, 77250</desc>
    <url>https://www.warmshowers.org/user/271122</url>
</wpt>
<wpt lat="48.788955" lon="1.898051">
  <name>Matthieu Chanfreau</name>
  <desc>, Jouars Pontchartrain, 78760</desc>
    <url>https://www.warmshowers.org/user/248348</url>
</wpt>
<wpt lat="48.541953" lon="2.655477">
  <name>Hertzog Romane </name>
  <desc>15 Rue Saint-Barthélémy, Melun, 77000</desc>
    <url>https://www.warmshowers.org/user/145725</url>
</wpt>
<wpt lat="48.542105" lon="2.6554">
  <name>Nicolas Plazanet</name>
  <desc>, Melun , 77000</desc>
    <url>https://www.warmshowers.org/user/185142</url>
</wpt>
<wpt lat="48.542105" lon="2.6554">
  <name>Marie-Noelle villedieu </name>
  <desc>, Melun, 77000</desc>
    <url>https://www.warmshowers.org/user/67391</url>
</wpt>
<wpt lat="48.542105" lon="2.6554">
  <name>Annick et Jérôme</name>
  <desc>, MELUN, 77000</desc>
    <url>https://www.warmshowers.org/user/156329</url>
</wpt>
<wpt lat="48.402702" lon="2.782665">
  <name>Romain Clement</name>
  <desc>, Thomery, 77810</desc>
    <url>https://www.warmshowers.org/user/155597</url>
</wpt>
<wpt lat="48.780493" lon="2.063475">
  <name>Patrick Therrillion</name>
  <desc>12 chemin de l'aqueduc, Guyancourt, 78280</desc>
    <url>https://www.warmshowers.org/user/73892</url>
</wpt>
<wpt lat="48.782206" lon="2.049605">
  <name>Gossart Adrien</name>
  <desc>rue de la liberté, Guyancourt, 78180</desc>
    <url>https://www.warmshowers.org/user/224334</url>
</wpt>
<wpt lat="48.499913" lon="1.074384">
  <name>Marie-odile Radet</name>
  <desc>3 rue de l'epinay, St Maurice St Germain, 28240</desc>
    <url>https://www.warmshowers.org/user/166728</url>
</wpt>
<wpt lat="48.430925" lon="2.764365">
  <name>Nicolas Chataigner</name>
  <desc>, Vulaines Sur Seine, 77870</desc>
    <url>https://www.warmshowers.org/user/264321</url>
</wpt>
<wpt lat="48.764545" lon="2.169007">
  <name>Nicolas Multon</name>
  <desc>, Jouy-en-Josas, </desc>
    <url>https://www.warmshowers.org/user/272028</url>
</wpt>
<wpt lat="48.45251" lon="2.7504">
  <name>Marie-Claude RUGRAFF</name>
  <desc>, Samois-sur-Seine, 77920</desc>
    <url>https://www.warmshowers.org/user/193493</url>
</wpt>
<wpt lat="47.792551" lon="1.065343">
  <name>Evelina et Etienne</name>
  <desc>, Vendôme, 41100</desc>
    <url>https://www.warmshowers.org/user/251918</url>
</wpt>
<wpt lat="48.777309" lon="2.123106">
  <name>LADAVIERE Hugo</name>
  <desc>4, chemin des marais, Buc, 78530</desc>
    <url>https://www.warmshowers.org/user/230800</url>
</wpt>
<wpt lat="48.77658" lon="2.12914">
  <name>Valeria CORDERO AGUIRRE</name>
  <desc>2, Avenue Huguier, Buc, 78530</desc>
    <url>https://www.warmshowers.org/user/221237</url>
</wpt>
<wpt lat="48.741784" lon="2.284185">
  <name>Charles Delorme</name>
  <desc>Parvis de la Bièvre, Antony, 92160</desc>
    <url>https://www.warmshowers.org/user/254467</url>
</wpt>
<wpt lat="47.791709" lon="1.061529">
  <name>Agnès JEANMICHEL</name>
  <desc>Rue de la Grève, VENDÔME, 41100</desc>
    <url>https://www.warmshowers.org/user/190351</url>
</wpt>
<wpt lat="48.752441" lon="2.25198">
  <name>Anne Lucas</name>
  <desc>, verrières le buisson, 91370</desc>
    <url>https://www.warmshowers.org/user/275770</url>
</wpt>
<wpt lat="48.387473" lon="2.804898">
  <name>Michel Ripoll</name>
  <desc>41, Quai de Seine, Saint-Mammès, 77670</desc>
    <url>https://www.warmshowers.org/user/277149</url>
</wpt>
<wpt lat="47.998396" lon="0.928626">
  <name>Durieux Manon</name>
  <desc>, Choue, 41170</desc>
    <url>https://www.warmshowers.org/user/276452</url>
</wpt>
<wpt lat="47.805379" lon="1.04316">
  <name>Etienne Niant</name>
  <desc>1 rue d'Artois, Vendôme, 41100</desc>
    <url>https://www.warmshowers.org/user/245879</url>
</wpt>
<wpt lat="47.854238" lon="1.002014">
  <name>Stéphane Lochin</name>
  <desc>1 rue de Bois Robert , Azé, 41100</desc>
    <url>https://www.warmshowers.org/user/218621</url>
</wpt>
<wpt lat="48.391226" lon="2.808306">
  <name>Ambroise Hamman </name>
  <desc>3 route de la celle, Champagne sur Seine , </desc>
    <url>https://www.warmshowers.org/user/133210</url>
</wpt>
<wpt lat="48.360353" lon="2.826892">
  <name>Sabrina Jouzeau</name>
  <desc>, Moret sur Loing, 77250</desc>
    <url>https://www.warmshowers.org/user/164407</url>
</wpt>
<wpt lat="48.360353" lon="2.826892">
  <name>Sonia Doually</name>
  <desc>, Moret sur loing, 77210</desc>
    <url>https://www.warmshowers.org/user/230307</url>
</wpt>
<wpt lat="48.390621" lon="2.811417">
  <name>veronique pélamourgues</name>
  <desc>40 quai de la croix blanche, saint mammès, 77670</desc>
    <url>https://www.warmshowers.org/user/210418</url>
</wpt>
<wpt lat="47.698059" lon="2.624758">
  <name>Ronan Le Lay</name>
  <desc>, gien, 45500</desc>
    <url>https://www.warmshowers.org/user/226689</url>
</wpt>
<wpt lat="47.600941" lon="1.311824">
  <name>michel vila</name>
  <desc>costes et bellonte, blois, 41000</desc>
    <url>https://www.warmshowers.org/user/241207</url>
</wpt>
<wpt lat="47.593273" lon="1.325841">
  <name>Adeline Martin</name>
  <desc>12 ter rue d'Estreux de beaugrenier, Blois, 41000</desc>
    <url>https://www.warmshowers.org/user/164006</url>
</wpt>
<wpt lat="48.281403" lon="2.867686">
  <name>Adrian Kriesi</name>
  <desc>21 rue Grande, Villemarechal, 77710</desc>
    <url>https://www.warmshowers.org/user/263604</url>
</wpt>
<wpt lat="47.586092" lon="1.335948">
  <name>Camille and Hugo</name>
  <desc>, Blois, 41000</desc>
    <url>https://www.warmshowers.org/user/124777</url>
</wpt>
<wpt lat="47.586092" lon="1.335948">
  <name>Marion Hervé</name>
  <desc>, BLOIS, 41000</desc>
    <url>https://www.warmshowers.org/user/185894</url>
</wpt>
<wpt lat="47.586092" lon="1.335948">
  <name>Constant FOUCHER</name>
  <desc>, Blois, 41000</desc>
    <url>https://www.warmshowers.org/user/164303</url>
</wpt>
<wpt lat="47.586092" lon="1.335948">
  <name>Julie  BENASSY </name>
  <desc>, Blois, 41000</desc>
    <url>https://www.warmshowers.org/user/170941</url>
</wpt>
<wpt lat="47.586092" lon="1.335948">
  <name>marine carassai</name>
  <desc>, Blois, 41000</desc>
    <url>https://www.warmshowers.org/user/163900</url>
</wpt>
<wpt lat="47.586092" lon="1.335948">
  <name>Jean-Sylvain et Mauricette GLON</name>
  <desc>, BLOIS, 41000</desc>
    <url>https://www.warmshowers.org/user/32849</url>
</wpt>
<wpt lat="47.586092" lon="1.335948">
  <name>Delanaud Marie-Pierre</name>
  <desc>, Blois, 41000</desc>
    <url>https://www.warmshowers.org/user/170817</url>
</wpt>
<wpt lat="48.799554" lon="2.058687">
  <name>Aurelie Olejnik</name>
  <desc>11 allée du bois joli, Saint Cyr l'école, 78210</desc>
    <url>https://www.warmshowers.org/user/161120</url>
</wpt>
<wpt lat="47.688693" lon="2.62355">
  <name>Pia Et Kevin</name>
  <desc>rue Georges Clemenceau, Gien, 45500</desc>
    <url>https://www.warmshowers.org/user/133649</url>
</wpt>
<wpt lat="48.708701" lon="2.427451">
  <name>Jean Briault</name>
  <desc>, VIGNEUX-SUR-SEINE, 91270</desc>
    <url>https://www.warmshowers.org/user/194253</url>
</wpt>
<wpt lat="48.795563" lon="2.126422">
  <name>Ga Han PARK</name>
  <desc>Rue des bourdonnais , Versailles, 78000</desc>
    <url>https://www.warmshowers.org/user/166775</url>
</wpt>
<wpt lat="48.754882" lon="2.306766">
  <name>Yaser MASOUMI</name>
  <desc>2 rue sderot, ANTONY, 92160</desc>
    <url>https://www.warmshowers.org/user/264057</url>
</wpt>
<wpt lat="48.697967" lon="2.460148">
  <name>François Bourrel</name>
  <desc>, Montgeron, 91230</desc>
    <url>https://www.warmshowers.org/user/200344</url>
</wpt>
<wpt lat="48.793194" lon="2.14309">
  <name>Hamza Bouabdallah</name>
  <desc>62 Rue des chantiers, Versailles, 78000</desc>
    <url>https://www.warmshowers.org/user/113882</url>
</wpt>
<wpt lat="48.395428" lon="2.826939">
  <name>Olivier BARTHELEMY</name>
  <desc>9 boulevard des grouettes, Vernou la celle sur seine, 77670</desc>
    <url>https://www.warmshowers.org/user/115102</url>
</wpt>
<wpt lat="47.686109" lon="2.632352">
  <name>Philomène Le Lay</name>
  <desc>12 rue des cortils, GIEN, 45500</desc>
    <url>https://www.warmshowers.org/user/182468</url>
</wpt>
<wpt lat="48.783628" lon="2.198531">
  <name>Marius Rolin</name>
  <desc>, VELIZY, 78140</desc>
    <url>https://www.warmshowers.org/user/215208</url>
</wpt>
<wpt lat="48.800647" lon="2.125655">
  <name>Claudie Leopole</name>
  <desc>4 avenue de sceaux, Versailles, 78000</desc>
    <url>https://www.warmshowers.org/user/218350</url>
</wpt>
<wpt lat="48.819381" lon="1.891563">
  <name>Jeanne L</name>
  <desc>, 78640 - VILLIERS ST FREDERIC, 78640</desc>
    <url>https://www.warmshowers.org/user/161203</url>
</wpt>
<wpt lat="48.703859" lon="2.460453">
  <name>Anna Lamy</name>
  <desc>, Montgeron, </desc>
    <url>https://www.warmshowers.org/user/229949</url>
</wpt>
<wpt lat="48.801408" lon="2.130122">
  <name>Guillemette PIGANEAU</name>
  <desc>, Versailles, </desc>
    <url>https://www.warmshowers.org/user/270960</url>
</wpt>
<wpt lat="48.801408" lon="2.130122">
  <name>Arthur Perrin</name>
  <desc>, Versailles, </desc>
    <url>https://www.warmshowers.org/user/128348</url>
</wpt>
<wpt lat="47.561093" lon="1.361681">
  <name>Laetitia et Stéphane Chaumont</name>
  <desc>, St Gervais la foret, 41350</desc>
    <url>https://www.warmshowers.org/user/175064</url>
</wpt>
<wpt lat="47.65322" lon="1.182825">
  <name>Manon et Baptiste</name>
  <desc>, Landes le gaulois, 41190</desc>
    <url>https://www.warmshowers.org/user/148823</url>
</wpt>
<wpt lat="48.748261" lon="2.352197">
  <name>Pierre Dubois</name>
  <desc>rue Georges Vuillefroy de Silly, Rungis, 94150</desc>
    <url>https://www.warmshowers.org/user/219551</url>
</wpt>
<wpt lat="48.819063" lon="1.979232">
  <name>YOANN Banco </name>
  <desc>8 Chemin aux boeufs , Les Clayes sous bois , 78340</desc>
    <url>https://www.warmshowers.org/user/205851</url>
</wpt>
<wpt lat="48.757205" lon="2.326243">
  <name>BERTRAND Claire &amp; Jérôme</name>
  <desc>, FRESNES, </desc>
    <url>https://www.warmshowers.org/user/118908</url>
</wpt>
<wpt lat="48.805174" lon="2.121959">
  <name>Julien PERRAUD</name>
  <desc>, Versailles, 78000</desc>
    <url>https://www.warmshowers.org/user/118025</url>
</wpt>
<wpt lat="48.805174" lon="2.121959">
  <name>Nicolas B</name>
  <desc>, VERSAILLES, 78000</desc>
    <url>https://www.warmshowers.org/user/81943</url>
</wpt>
<wpt lat="48.805174" lon="2.121959">
  <name>Arnaud Magnier</name>
  <desc>, Versailles, 78000</desc>
    <url>https://www.warmshowers.org/user/215527</url>
</wpt>
<wpt lat="48.758472" lon="2.327996">
  <name>Ophélie Paris</name>
  <desc>, Fresnes, 94260</desc>
    <url>https://www.warmshowers.org/user/236545</url>
</wpt>
<wpt lat="48.805902" lon="2.126045">
  <name>Violette Campos</name>
  <desc>, Versailles, </desc>
    <url>https://www.warmshowers.org/user/188342</url>
</wpt>
<wpt lat="47.633272" lon="1.20676">
  <name>Guillaume F</name>
  <desc>Chatulay , Saint Lubin en Vergonnois, 41190</desc>
    <url>https://www.warmshowers.org/user/244928</url>
</wpt>
<wpt lat="47.98072" lon="0.894563">
  <name>Basile dominique</name>
  <desc>, mondoubleau, 41170</desc>
    <url>https://www.warmshowers.org/user/261819</url>
</wpt>
<wpt lat="48.817468" lon="2.045926">
  <name>Peigné Michel</name>
  <desc>, Fontenay-le-Fleury, 78330</desc>
    <url>https://www.warmshowers.org/user/172693</url>
</wpt>
<wpt lat="48.801783" lon="2.169188">
  <name>Jean de Mauroy</name>
  <desc>, VIROFLAY, 78220</desc>
    <url>https://www.warmshowers.org/user/176004</url>
</wpt>
<wpt lat="48.736134" lon="1.370889">
  <name>BOUVIER Pierrre-Armand </name>
  <desc>, DREUX, </desc>
    <url>https://www.warmshowers.org/user/96263</url>
</wpt>
<wpt lat="48.803301" lon="2.170905">
  <name>Martin Hirschauer</name>
  <desc>9 rue Rieussec, Viroflay, 78220</desc>
    <url>https://www.warmshowers.org/user/266151</url>
</wpt>
<wpt lat="48.683051" lon="2.530839">
  <name>Léa Duchateau</name>
  <desc>5 avenue Jean moulin, Boussy saint Antoine, 91800</desc>
    <url>https://www.warmshowers.org/user/157565</url>
</wpt>
<wpt lat="48.395226" lon="2.853446">
  <name>christian Robert</name>
  <desc>34 rue du montoir, vernou sur seine, 77670</desc>
    <url>https://www.warmshowers.org/user/240227</url>
</wpt>
<wpt lat="48.778016" lon="2.295092">
  <name>Tristan Vuillemin</name>
  <desc>, Sceaux , 92</desc>
    <url>https://www.warmshowers.org/user/225900</url>
</wpt>
<wpt lat="48.780374" lon="2.29326">
  <name>SOPHIE GAUTHIER</name>
  <desc>5 allée Bernadotte, SCEAUX, 92330</desc>
    <url>https://www.warmshowers.org/user/71711</url>
</wpt>
<wpt lat="48.720463" lon="2.464902">
  <name>Joaquin Perez</name>
  <desc>, Crosne , 91560</desc>
    <url>https://www.warmshowers.org/user/200811</url>
</wpt>
<wpt lat="48.806383" lon="2.191904">
  <name>Liesl Fischer</name>
  <desc>, Chaville, 92370</desc>
    <url>https://www.warmshowers.org/user/37983</url>
</wpt>
<wpt lat="48.774496" lon="2.32594">
  <name>Camille &amp; Christophe</name>
  <desc>21 avenue flouquet, l'haÿ les roses, 94240</desc>
    <url>https://www.warmshowers.org/user/145728</url>
</wpt>
<wpt lat="48.779415" lon="2.312479">
  <name>Damien Rei</name>
  <desc>5 rue André Theuriet, Bourg la reine, 92340</desc>
    <url>https://www.warmshowers.org/user/277474</url>
</wpt>
<wpt lat="48.77877" lon="2.318455">
  <name>grégory bui</name>
  <desc>, bourg la reine, 92340</desc>
    <url>https://www.warmshowers.org/user/95478</url>
</wpt>
<wpt lat="48.820967" lon="2.133094">
  <name>Céline &amp; Jérôme</name>
  <desc>rue Bayard, Le Chesnay, 78150</desc>
    <url>https://www.warmshowers.org/user/140422</url>
</wpt>
<wpt lat="48.598825" lon="2.685841">
  <name>Paul Garcin</name>
  <desc>, Aubigny, 77950</desc>
    <url>https://www.warmshowers.org/user/118080</url>
</wpt>
<wpt lat="48.789776" lon="2.287181">
  <name>Eric Delobel</name>
  <desc>, Fontenay aux roses, </desc>
    <url>https://www.warmshowers.org/user/274968</url>
</wpt>
<wpt lat="48.751511" lon="2.408081">
  <name>Mathias Fingermann</name>
  <desc>, Choisy-le-Roi, 94600</desc>
    <url>https://www.warmshowers.org/user/11342</url>
</wpt>
<wpt lat="48.790501" lon="2.286916">
  <name>Baptiste et Alice Morize</name>
  <desc>3 rue jean Jaurès, Fontenay-aux-Roses , 92260</desc>
    <url>https://www.warmshowers.org/user/209385</url>
</wpt>
<wpt lat="48.779185" lon="2.329373">
  <name>Elodie Dellier</name>
  <desc>rue de la cosarde, L'hay les roses, 94240</desc>
    <url>https://www.warmshowers.org/user/267413</url>
</wpt>
<wpt lat="48.824252" lon="2.134355">
  <name>Thomas de Menthière</name>
  <desc>rue Corneille, Le Chesnay, 78150</desc>
    <url>https://www.warmshowers.org/user/255566</url>
</wpt>
<wpt lat="47.811587" lon="0.962948">
  <name>Philippe Rivière</name>
  <desc>21 route de vendome, Mazangé, 41100</desc>
    <url>https://www.warmshowers.org/user/190851</url>
</wpt>
<wpt lat="48.463057" lon="2.828615">
  <name>Fabrice Cattelan</name>
  <desc>Rue de la vallee, Machault, 77133</desc>
    <url>https://www.warmshowers.org/user/260065</url>
</wpt>
<wpt lat="48.695282" lon="2.550822">
  <name>Cécile Némorin</name>
  <desc>, Périgny-sur-Yerres, 94520</desc>
    <url>https://www.warmshowers.org/user/258259</url>
</wpt>
<wpt lat="48.809025" lon="2.239277">
  <name>Jerome Chemin</name>
  <desc>93 B RUE DE PARIS, MEUDON, 92190</desc>
    <url>https://www.warmshowers.org/user/208018</url>
</wpt>
<wpt lat="48.821664" lon="2.181895">
  <name>Thomas Darde</name>
  <desc>, Ville d'Avray, 92410</desc>
    <url>https://www.warmshowers.org/user/266084</url>
</wpt>
<wpt lat="48.83858" lon="1.700769">
  <name>Chris Fis</name>
  <desc>, ORGERUS, 78910</desc>
    <url>https://www.warmshowers.org/user/237411</url>
</wpt>
<wpt lat="48.813115" lon="2.234398">
  <name>Oleksii Zhyrovyi </name>
  <desc>, Meudon, 92190</desc>
    <url>https://www.warmshowers.org/user/91969</url>
</wpt>
<wpt lat="48.762541" lon="2.408876">
  <name>Aurélie Quinton</name>
  <desc>, Choisy Le Roi, </desc>
    <url>https://www.warmshowers.org/user/233128</url>
</wpt>
<wpt lat="48.812995" lon="2.23847">
  <name>Martin Jandet</name>
  <desc>, Meudon, </desc>
    <url>https://www.warmshowers.org/user/172157</url>
</wpt>
<wpt lat="48.812995" lon="2.23847">
  <name>Pierre Guedant</name>
  <desc>, Meudon, </desc>
    <url>https://www.warmshowers.org/user/268963</url>
</wpt>
<wpt lat="48.852845" lon="1.874855">
  <name>Muriel et Vincent HEULIN</name>
  <desc>, BEYNES, 78650</desc>
    <url>https://www.warmshowers.org/user/152710</url>
</wpt>
<wpt lat="48.792914" lon="2.322084">
  <name>Anne et Cosme</name>
  <desc>20 avenue du Pont Royal, Cachan, 94230</desc>
    <url>https://www.warmshowers.org/user/163094</url>
</wpt>
<wpt lat="48.798492" lon="2.305981">
  <name>BESANCENOT FLORENCE</name>
  <desc>10 rue des olivettes, Bagneux, 92220</desc>
    <url>https://www.warmshowers.org/user/23838</url>
</wpt>
<wpt lat="47.958721" lon="0.858011">
  <name>Marie et François Jacquin</name>
  <desc>La Fontaine, Baillou, 41170</desc>
    <url>https://www.warmshowers.org/user/193515</url>
</wpt>
<wpt lat="48.791038" lon="2.333472">
  <name>Catherine schuwer</name>
  <desc>, cachan, 94230</desc>
    <url>https://www.warmshowers.org/user/243926</url>
</wpt>
<wpt lat="48.804542" lon="2.286927">
  <name>Stefan DE LESTAPIS</name>
  <desc>, Chatillon, 92320</desc>
    <url>https://www.warmshowers.org/user/166515</url>
</wpt>
<wpt lat="48.804542" lon="2.286927">
  <name>Amélie Petit</name>
  <desc>, Châtillon, 92320</desc>
    <url>https://www.warmshowers.org/user/228885</url>
</wpt>
<wpt lat="48.806631" lon="2.279933">
  <name>Elie FAVIER</name>
  <desc>1 Villa Eugène , Châtillon, 92320</desc>
    <url>https://www.warmshowers.org/user/142804</url>
</wpt>
<wpt lat="48.827941" lon="2.184607">
  <name>NICOLAS HAUSHALTER</name>
  <desc>16 rue de Marnes, ville d'avray, 92410</desc>
    <url>https://www.warmshowers.org/user/60022</url>
</wpt>
<wpt lat="48.813984" lon="2.250632">
  <name>Alexandre Bécart </name>
  <desc>27 b sentier des Mauduits , Meudon , 92190</desc>
    <url>https://www.warmshowers.org/user/115948</url>
</wpt>
<wpt lat="48.656808" lon="2.635126">
  <name>Martial ROTROU</name>
  <desc>, Evry Gregy sur Yerres, 77166</desc>
    <url>https://www.warmshowers.org/user/273467</url>
</wpt>
<wpt lat="48.793051" lon="2.337365">
  <name>valentin verret</name>
  <desc>11 rue François Delage, Cachan, 94230</desc>
    <url>https://www.warmshowers.org/user/80465</url>
</wpt>
<wpt lat="48.81014" lon="2.281314">
  <name>Nico Guigz</name>
  <desc>11 rue des vergers , Châtillon, 92320</desc>
    <url>https://www.warmshowers.org/user/273424</url>
</wpt>
<wpt lat="48.790584" lon="2.355867">
  <name>Balli Claire et Francis</name>
  <desc>, Villejuif, 94800</desc>
    <url>https://www.warmshowers.org/user/38044</url>
</wpt>
<wpt lat="48.769118" lon="2.421395">
  <name>Eva ROCHE</name>
  <desc>, Choisy le roi, 94600</desc>
    <url>https://www.warmshowers.org/user/212367</url>
</wpt>
<wpt lat="48.828508" lon="2.218807">
  <name>William Darbois</name>
  <desc>92, Paris, 75012</desc>
    <url>https://www.warmshowers.org/user/232249</url>
</wpt>
<wpt lat="48.781275" lon="2.391454">
  <name>Pierre Noblet</name>
  <desc>rue Pierre et Marie Curie, Vitry-sur-Seine, 94400</desc>
    <url>https://www.warmshowers.org/user/266051</url>
</wpt>
<wpt lat="48.823461" lon="2.248129">
  <name>Elisabeth Harberts</name>
  <desc>4 Allée Louis Bonnier, Issy-Les-Moulineaux, 92130</desc>
    <url>https://www.warmshowers.org/user/228624</url>
</wpt>
<wpt lat="48.844352" lon="2.142044">
  <name>Brieuc MICHEL</name>
  <desc>37 Avenue Emile Augier, La Celle-Saint-Cloud, 78170</desc>
    <url>https://www.warmshowers.org/user/259074</url>
</wpt>
<wpt lat="48.866403" lon="1.945969">
  <name>Nathalie Germain</name>
  <desc>, davron, 78810</desc>
    <url>https://www.warmshowers.org/user/79367</url>
</wpt>
<wpt lat="48.822507" lon="2.268754">
  <name>Juliette Cantet</name>
  <desc>, Issy les Moulineaux, 92130</desc>
    <url>https://www.warmshowers.org/user/180180</url>
</wpt>
<wpt lat="48.822507" lon="2.268754">
  <name>Emmanuel LC</name>
  <desc>, Issy les moulineaux, 92130</desc>
    <url>https://www.warmshowers.org/user/266659</url>
</wpt>
<wpt lat="48.817275" lon="2.29776">
  <name>Fanny Le Brech &amp; Aurélien Denaes</name>
  <desc>, Malakoff, 92240</desc>
    <url>https://www.warmshowers.org/user/266742</url>
</wpt>
<wpt lat="48.817275" lon="2.29776">
  <name>Rodrigues Matias</name>
  <desc>, Malakoff , 92240</desc>
    <url>https://www.warmshowers.org/user/80761</url>
</wpt>
<wpt lat="48.691227" lon="2.61037">
  <name>Ngo Thierry</name>
  <desc>, Brie-Comte-Robert, </desc>
    <url>https://www.warmshowers.org/user/278195</url>
</wpt>
<wpt lat="48.833209" lon="2.23598">
  <name>Maëlys QUELIN</name>
  <desc>, BOULOGNE-BILLANCOURT, 92100</desc>
    <url>https://www.warmshowers.org/user/265880</url>
</wpt>
<wpt lat="48.833209" lon="2.23598">
  <name>Thomas Boursin</name>
  <desc>, Boulogne-Billancourt, 92100</desc>
    <url>https://www.warmshowers.org/user/270056</url>
</wpt>
<wpt lat="48.686417" lon="2.619065">
  <name>Nicolas Kerviche</name>
  <desc>3 chemin de la république, 77170 - BRIE COMTE ROBERT, 77170</desc>
    <url>https://www.warmshowers.org/user/273982</url>
</wpt>
<wpt lat="48.814029" lon="2.315728">
  <name>Sébastien Mineo</name>
  <desc>, Montrouge, 92120</desc>
    <url>https://www.warmshowers.org/user/267908</url>
</wpt>
<wpt lat="48.814507" lon="2.31453">
  <name>Yoann Lafficher </name>
  <desc>53 rue Périer, MONTROUGE, 92120</desc>
    <url>https://www.warmshowers.org/user/131831</url>
</wpt>
<wpt lat="48.690987" lon="2.616059">
  <name>pierre chantelot</name>
  <desc>Avenue du Parc, Brie-Comte-Robert, 77170</desc>
    <url>https://www.warmshowers.org/user/164368</url>
</wpt>
<wpt lat="48.802217" lon="2.364451">
  <name>Marc Hoang</name>
  <desc>62 avenue de Paris, Villejuif, 94800</desc>
    <url>https://www.warmshowers.org/user/202014</url>
</wpt>
<wpt lat="48.83333" lon="2.25">
  <name>Zoran Lutovac</name>
  <desc>8 Villa des Beaux Arts, Boulogne-Billancourt, 92100</desc>
    <url>https://www.warmshowers.org/user/240841</url>
</wpt>
<wpt lat="48.83333" lon="2.25">
  <name>THIERUS Lydia</name>
  <desc>, boulogne-billancourt, 92100</desc>
    <url>https://www.warmshowers.org/user/228670</url>
</wpt>
<wpt lat="48.816363" lon="2.317384">
  <name>Rémi Berranger</name>
  <desc>, MONTROUGE, </desc>
    <url>https://www.warmshowers.org/user/225320</url>
</wpt>
<wpt lat="48.403035" lon="0.861889">
  <name>Laporte Stephanie</name>
  <desc>La Haye, Condé sur Huisne, 61110</desc>
    <url>https://www.warmshowers.org/user/274729</url>
</wpt>
<wpt lat="48.845362" lon="2.195008">
  <name>Zoe Terrier</name>
  <desc>rue des croissants, Garches, 92380</desc>
    <url>https://www.warmshowers.org/user/245128</url>
</wpt>
<wpt lat="48.837026" lon="2.236298">
  <name>Annie et Steven</name>
  <desc>Rue André Morizet, Boulogne-Billancourt, 92100</desc>
    <url>https://www.warmshowers.org/user/52826</url>
</wpt>
<wpt lat="48.824632" lon="2.288547">
  <name>Carole gargot</name>
  <desc>, Vanves, 92170</desc>
    <url>https://www.warmshowers.org/user/70961</url>
</wpt>
<wpt lat="48.79052" lon="2.402581">
  <name>Gerald Arreto</name>
  <desc>114 rue Gabriel Péri, Vitry sur Seine, 94400</desc>
    <url>https://www.warmshowers.org/user/231056</url>
</wpt>
<wpt lat="48.800517" lon="2.373381">
  <name>Owain Biddulph</name>
  <desc>30 rue Donizetti, Vitry-sur-Seine, 94400</desc>
    <url>https://www.warmshowers.org/user/270035</url>
</wpt>
<wpt lat="48.813855" lon="2.330488">
  <name>Dassouli Houcine</name>
  <desc>Rue Foubert, Gentilly, 94250</desc>
    <url>https://www.warmshowers.org/user/194557</url>
</wpt>
<wpt lat="48.819724" lon="2.311567">
  <name>Florian Duval</name>
  <desc>103 rue Gabriel Péri, Montrouge, 92120</desc>
    <url>https://www.warmshowers.org/user/225841</url>
</wpt>
<wpt lat="48.816912" lon="2.323568">
  <name>Ludovic de Bussy</name>
  <desc>10 rue Amaury Duval, Montrouge, 92120</desc>
    <url>https://www.warmshowers.org/user/230713</url>
</wpt>
<wpt lat="48.808214" lon="2.354524">
  <name>Simon Hahn</name>
  <desc>, Kremlin-Bicêtre, 94270</desc>
    <url>https://www.warmshowers.org/user/252153</url>
</wpt>
<wpt lat="48.808214" lon="2.354524">
  <name>Jean-Louis  VIELMAS</name>
  <desc>, Le Kremlin Bicêtre, 94270</desc>
    <url>https://www.warmshowers.org/user/218608</url>
</wpt>
<wpt lat="48.81362" lon="2.336967">
  <name>Antton Curutchet</name>
  <desc>Pierre Marcel, Gentilly, 94250</desc>
    <url>https://www.warmshowers.org/user/118766</url>
</wpt>
<wpt lat="48.813305" lon="2.338439">
  <name>Axel Lambert</name>
  <desc>rue des Champs-Elysées, Gentilly, 75013</desc>
    <url>https://www.warmshowers.org/user/239933</url>
</wpt>
<wpt lat="48.839695" lon="2.239912">
  <name>Babylone Farid</name>
  <desc>, Boulogne Billancourt, </desc>
    <url>https://www.warmshowers.org/user/88613</url>
</wpt>
<wpt lat="48.839695" lon="2.239912">
  <name>Ousmane ngom</name>
  <desc>, Boulogne billancourt, </desc>
    <url>https://www.warmshowers.org/user/126766</url>
</wpt>
<wpt lat="48.839695" lon="2.239912">
  <name>Claire Yiching Su</name>
  <desc>, Boulogne-Billancourt, </desc>
    <url>https://www.warmshowers.org/user/262796</url>
</wpt>
<wpt lat="48.746893" lon="2.520566">
  <name>Haroen Viaene &amp; Abi Summers</name>
  <desc>, Boissy-Saint-Léger, 94470</desc>
    <url>https://www.warmshowers.org/user/274724</url>
</wpt>
<wpt lat="47.561493" lon="1.212652">
  <name>Bertrand COSSON</name>
  <desc>22 rue Paul Renouard, CHAMBON sur Cisse, 41190</desc>
    <url>https://www.warmshowers.org/user/40720</url>
</wpt>
<wpt lat="48.847647" lon="2.208115">
  <name>Jeanne BREBION</name>
  <desc>, Saint Cloud, </desc>
    <url>https://www.warmshowers.org/user/263978</url>
</wpt>
<wpt lat="48.847647" lon="2.208115">
  <name>Eloi Renaudin</name>
  <desc>, Saint-Cloud, 92210</desc>
    <url>https://www.warmshowers.org/user/126291</url>
</wpt>
<wpt lat="48.841444" lon="2.238096">
  <name>Dumont Adrien</name>
  <desc>, Paris, 75</desc>
    <url>https://www.warmshowers.org/user/140983</url>
</wpt>
<wpt lat="48.844924" lon="2.234874">
  <name>Hugo BOICHAT</name>
  <desc>Avenue Jean-Baptiste Clément, Boulogne-Billancourt, 92100</desc>
    <url>https://www.warmshowers.org/user/266378</url>
</wpt>
<wpt lat="48.829236" lon="2.307084">
  <name>Mathieu bobin</name>
  <desc>7 rue Alfred Durand Claye, Paris, 75014</desc>
    <url>https://www.warmshowers.org/user/163192</url>
</wpt>
<wpt lat="48.824852" lon="2.323776">
  <name>Alexandre Boutry</name>
  <desc>, PARIS, </desc>
    <url>https://www.warmshowers.org/user/268728</url>
</wpt>
<wpt lat="48.20456" lon="2.99883">
  <name>Jérôme Pétin</name>
  <desc>47, Rue de Paris, CHEROY, 89690</desc>
    <url>https://www.warmshowers.org/user/102194</url>
</wpt>
<wpt lat="48.826482" lon="2.323409">
  <name>Mark Andrew Smith</name>
  <desc>36 avenue Jean Moulin, Paris, 75014</desc>
    <url>https://www.warmshowers.org/user/269738</url>
</wpt>
<wpt lat="48.325838" lon="0.807586">
  <name>Guevellou Ronan </name>
  <desc>15 rue de la Malerie, Nogent le Rotrou, 28400</desc>
    <url>https://www.warmshowers.org/user/175403</url>
</wpt>
<wpt lat="48.829619" lon="2.31515">
  <name>François-Xavier Cavrois</name>
  <desc>rue Jonquoy 8bis, Paris, 75014</desc>
    <url>https://www.warmshowers.org/user/276411</url>
</wpt>
<wpt lat="48.822979" lon="2.34168">
  <name>Antoine Fortin</name>
  <desc>Amiral mouchez, Paris, 75014</desc>
    <url>https://www.warmshowers.org/user/165057</url>
</wpt>
<wpt lat="48.83953" lon="2.282703">
  <name>Pierre Papin</name>
  <desc>164 rue de lourmel, Paris, 75015</desc>
    <url>https://www.warmshowers.org/user/76207</url>
</wpt>
<wpt lat="48.82711" lon="2.331747">
  <name>Edouard Fleuriau-Chateau</name>
  <desc>15 rue Sarrette, Paris, 75014</desc>
    <url>https://www.warmshowers.org/user/88822</url>
</wpt>
<wpt lat="48.809977" lon="2.391168">
  <name>Iris T-F et Daniel F-T</name>
  <desc>, Ivry-sur-Seine, 94200</desc>
    <url>https://www.warmshowers.org/user/193385</url>
</wpt>
<wpt lat="48.798942" lon="2.423969">
  <name>ROMAIN LOUDENOT</name>
  <desc>RUE EMILE ZOLA, Alfortville, 94140</desc>
    <url>https://www.warmshowers.org/user/191729</url>
</wpt>
<wpt lat="48.774755" lon="2.487765">
  <name>Agatha W</name>
  <desc>, Bonneuil sur Marne, </desc>
    <url>https://www.warmshowers.org/user/112764</url>
</wpt>
<wpt lat="48.820774" lon="2.361074">
  <name>Andréa Letoublon</name>
  <desc>Rue Gandon, Paris 13eme , 75013</desc>
    <url>https://www.warmshowers.org/user/157163</url>
</wpt>
<wpt lat="48.831392" lon="2.325439">
  <name>Sylvain Chiesa</name>
  <desc>, Paris, 75014</desc>
    <url>https://www.warmshowers.org/user/269760</url>
</wpt>
<wpt lat="48.831392" lon="2.325439">
  <name>Seth FISHER</name>
  <desc>, Paris, 75014</desc>
    <url>https://www.warmshowers.org/user/264409</url>
</wpt>
<wpt lat="48.831441" lon="2.325568">
  <name>Jean-Pierre Issa</name>
  <desc>, Paris, 75014</desc>
    <url>https://www.warmshowers.org/user/134023</url>
</wpt>
<wpt lat="48.831441" lon="2.325568">
  <name>Maïa CT</name>
  <desc>, Paris, 75014</desc>
    <url>https://www.warmshowers.org/user/113594</url>
</wpt>
<wpt lat="48.831441" lon="2.325568">
  <name>Martin Denis</name>
  <desc>A breque, Paris, 75014</desc>
    <url>https://www.warmshowers.org/user/261684</url>
</wpt>
<wpt lat="48.80093" lon="2.422317">
  <name>Jennifer Thibault </name>
  <desc>, ALFORTVILLE , </desc>
    <url>https://www.warmshowers.org/user/270692</url>
</wpt>
<wpt lat="48.843194" lon="2.281382">
  <name>Christophe S</name>
  <desc>rue des bergers, PARIS, 75015</desc>
    <url>https://www.warmshowers.org/user/34893</url>
</wpt>
<wpt lat="48.829624" lon="2.332809">
  <name>Samuel Charron</name>
  <desc>9 rue remy dumoncel, paris, 75014</desc>
    <url>https://www.warmshowers.org/user/126496</url>
</wpt>
<wpt lat="48.788482" lon="2.456761">
  <name>Pauline Mouche</name>
  <desc>, Créteil, 94000</desc>
    <url>https://www.warmshowers.org/user/221998</url>
</wpt>
<wpt lat="48.788482" lon="2.456761">
  <name>SERVANE CHAUVEL</name>
  <desc>, CRETEIL, 94000</desc>
    <url>https://www.warmshowers.org/user/214167</url>
</wpt>
<wpt lat="48.788482" lon="2.456761">
  <name>LECOINTRE Jacqueline</name>
  <desc>, creteil, 94000</desc>
    <url>https://www.warmshowers.org/user/150427</url>
</wpt>
<wpt lat="48.813055" lon="2.38822">
  <name>Alice Meignié</name>
  <desc>, Ivry sur Seine, </desc>
    <url>https://www.warmshowers.org/user/201296</url>
</wpt>
<wpt lat="48.813055" lon="2.38822">
  <name>Melanie Armand</name>
  <desc>, Ivry sur Seine , </desc>
    <url>https://www.warmshowers.org/user/137780</url>
</wpt>
<wpt lat="48.834048" lon="2.31802">
  <name>Zohir Bouda</name>
  <desc>Rue de pernety, Paris, 75014</desc>
    <url>https://www.warmshowers.org/user/167093</url>
</wpt>
<wpt lat="48.801802" lon="2.421375">
  <name>Ugo Bibron</name>
  <desc>, Alfortville, 94140</desc>
    <url>https://www.warmshowers.org/user/102739</url>
</wpt>
<wpt lat="48.801802" lon="2.421375">
  <name>Pauline &amp; Olivier</name>
  <desc>, Alfortville, 94140</desc>
    <url>https://www.warmshowers.org/user/131248</url>
</wpt>
<wpt lat="48.801802" lon="2.421375">
  <name>Jean Maysonnave</name>
  <desc>, ALFORTVILLE, 94140</desc>
    <url>https://www.warmshowers.org/user/265411</url>
</wpt>
<wpt lat="48.832868" lon="2.323997">
  <name>Pierre-Adrien Mongin</name>
  <desc>37 rue Maurice Ripoche, Paris, 75014</desc>
    <url>https://www.warmshowers.org/user/110086</url>
</wpt>
<wpt lat="48.846294" lon="2.272239">
  <name>JEROME PIERRE</name>
  <desc>2 rue narcisse diaz, Paris, 75016</desc>
    <url>https://www.warmshowers.org/user/203344</url>
</wpt>
<wpt lat="48.790367" lon="2.455572">
  <name>Basile Hosseini</name>
  <desc>, Créteil , </desc>
    <url>https://www.warmshowers.org/user/269805</url>
</wpt>
<wpt lat="48.761711" lon="2.524467">
  <name>Cabarrot stéphane</name>
  <desc>111 rue du clos de ville, SUCY EN BRIE, 94370</desc>
    <url>https://www.warmshowers.org/user/101335</url>
</wpt>
<wpt lat="48.84213" lon="2.292705">
  <name>Rémi Mn</name>
  <desc>, Paris, 75015</desc>
    <url>https://www.warmshowers.org/user/244643</url>
</wpt>
<wpt lat="48.84213" lon="2.292705">
  <name>Barthélémy Leveque</name>
  <desc>, Paris, 75015</desc>
    <url>https://www.warmshowers.org/user/158192</url>
</wpt>
<wpt lat="48.842162" lon="2.292767">
  <name>Elisabeth Collin-Canto</name>
  <desc>, Paris, 75015</desc>
    <url>https://www.warmshowers.org/user/183883</url>
</wpt>
<wpt lat="48.842162" lon="2.292767">
  <name>Raphael Baudoin</name>
  <desc>, Paris, 75015</desc>
    <url>https://www.warmshowers.org/user/184992</url>
</wpt>
<wpt lat="48.842162" lon="2.292767">
  <name>Aakash SONI</name>
  <desc>, Paris, 75015</desc>
    <url>https://www.warmshowers.org/user/153263</url>
</wpt>
<wpt lat="48.842162" lon="2.292767">
  <name>Agnès de Varine </name>
  <desc>, Paris, 75015</desc>
    <url>https://www.warmshowers.org/user/152582</url>
</wpt>
<wpt lat="48.842162" lon="2.292767">
  <name>Marie Cote</name>
  <desc>, Paris, 75015</desc>
    <url>https://www.warmshowers.org/user/137038</url>
</wpt>
<wpt lat="48.842162" lon="2.292767">
  <name>Aliaume Brochard</name>
  <desc>, Paris, 75015</desc>
    <url>https://www.warmshowers.org/user/278553</url>
</wpt>
<wpt lat="48.828076" lon="2.344918">
  <name>Victor Jean-Baptiste</name>
  <desc>Rue Daviel, Paris, 75013</desc>
    <url>https://www.warmshowers.org/user/266205</url>
</wpt>
<wpt lat="48.866399" lon="2.180188">
  <name>Maxime Ghennai</name>
  <desc>42 rue jean bourguignon, Rueil Malmaison, </desc>
    <url>https://www.warmshowers.org/user/271575</url>
</wpt>
<wpt lat="48.803925" lon="2.420998">
  <name>Hugo Faye</name>
  <desc>51 rue Raspail, Alfortville, 94140</desc>
    <url>https://www.warmshowers.org/user/147690</url>
</wpt>
<wpt lat="48.821935" lon="2.366655">
  <name>Louis Portay</name>
  <desc>Villa d'Este, Paris, 75013</desc>
    <url>https://www.warmshowers.org/user/240622</url>
</wpt>
<wpt lat="48.853093" lon="2.248763">
  <name>Florence Etheimer </name>
  <desc>, Paris, 75016</desc>
    <url>https://www.warmshowers.org/user/94935</url>
</wpt>
<wpt lat="48.802498" lon="2.425472">
  <name>Rafik TIGANE</name>
  <desc>16B Avenue Malleret Joinville, Alfortville, 94140</desc>
    <url>https://www.warmshowers.org/user/245724</url>
</wpt>
<wpt lat="48.8412" lon="2.3003">
  <name>ANTONIN LENORMANT</name>
  <desc>79 rue Lecourbe, Paris, 75015</desc>
    <url>https://www.warmshowers.org/user/245576</url>
</wpt>
<wpt lat="48.8412" lon="2.3003">
  <name>Pauline Dufour</name>
  <desc>, Paris, 75015</desc>
    <url>https://www.warmshowers.org/user/154226</url>
</wpt>
<wpt lat="48.830958" lon="2.338714">
  <name>Quentin AVEDISSIAN</name>
  <desc>16 Villa de Lourcine , Paris, 75014</desc>
    <url>https://www.warmshowers.org/user/219520</url>
</wpt>
<wpt lat="48.59306" lon="0.983875">
  <name>MOURET ODILE</name>
  <desc> 9 route de la verrerie, LA PUISAYE, 28250</desc>
    <url>https://www.warmshowers.org/user/231194</url>
</wpt>
<wpt lat="48.826168" lon="2.359897">
  <name>Bérengère Moulin</name>
  <desc>, Paris, 75013</desc>
    <url>https://www.warmshowers.org/user/263918</url>
</wpt>
<wpt lat="48.826168" lon="2.359897">
  <name>Claire Carvallo</name>
  <desc>, Paris, 75013</desc>
    <url>https://www.warmshowers.org/user/30640</url>
</wpt>
<wpt lat="48.826168" lon="2.359897">
  <name>Jerome Roussel</name>
  <desc>, Paris, 75013</desc>
    <url>https://www.warmshowers.org/user/178941</url>
</wpt>
<wpt lat="48.826197" lon="2.359938">
  <name>Valentin Bel</name>
  <desc>, Paris, 75013</desc>
    <url>https://www.warmshowers.org/user/232804</url>
</wpt>
<wpt lat="48.869568" lon="2.177176">
  <name>Tristan Plateau</name>
  <desc>, rueil malmaison, 92500</desc>
    <url>https://www.warmshowers.org/user/104212</url>
</wpt>
<wpt lat="48.869568" lon="2.177176">
  <name>Le Chat</name>
  <desc>, RUEIL MALMAISON, 92500</desc>
    <url>https://www.warmshowers.org/user/133460</url>
</wpt>
<wpt lat="48.809969" lon="2.414327">
  <name>Romain PASQUET</name>
  <desc>, Alfortville, 94140</desc>
    <url>https://www.warmshowers.org/user/269488</url>
</wpt>
<wpt lat="48.823173" lon="2.375446">
  <name>julien delattre</name>
  <desc>12 rue darmesteter, PARIS, 75013</desc>
    <url>https://www.warmshowers.org/user/127552</url>
</wpt>
<wpt lat="48.847884" lon="2.290748">
  <name>Christian AMIN CHALHOUB</name>
  <desc>Rue du Théâtre, Paris, 75015</desc>
    <url>https://www.warmshowers.org/user/241663</url>
</wpt>
<wpt lat="48.887607" lon="2.06647">
  <name>Jacques BOISRAME</name>
  <desc>9 résidence du Clos Baron, 78112 - FOURQUEUX, 78112</desc>
    <url>https://www.warmshowers.org/user/243016</url>
</wpt>
<wpt lat="48.884204" lon="2.096886">
  <name>Françoise BRAUD</name>
  <desc>allée du Colombier, LE PECQ, 78230</desc>
    <url>https://www.warmshowers.org/user/254975</url>
</wpt>
<wpt lat="48.824856" lon="2.37675">
  <name>Pauline Lagarde</name>
  <desc>30 rue Regnault, Paris, 75013</desc>
    <url>https://www.warmshowers.org/user/268719</url>
</wpt>
<wpt lat="48.835023" lon="2.344145">
  <name>Antoine Lippens</name>
  <desc>, Paris, </desc>
    <url>https://www.warmshowers.org/user/258278</url>
</wpt>
<wpt lat="48.820998" lon="2.39006">
  <name>Hugo Raffoul-de Comarmond</name>
  <desc>Victor Hugo, Ivry, 94200</desc>
    <url>https://www.warmshowers.org/user/76466</url>
</wpt>
<wpt lat="48.830759" lon="2.359204">
  <name>Sébastien ANGOT</name>
  <desc>, Paris, 75013</desc>
    <url>https://www.warmshowers.org/user/277863</url>
</wpt>
<wpt lat="48.830759" lon="2.359204">
  <name>Agnès RAT PATRON</name>
  <desc>, PARIS, 75013</desc>
    <url>https://www.warmshowers.org/user/198965</url>
</wpt>
<wpt lat="48.830759" lon="2.359204">
  <name>Arthur Le Menec</name>
  <desc>, Paris, 75013</desc>
    <url>https://www.warmshowers.org/user/224294</url>
</wpt>
<wpt lat="48.866175" lon="2.217974">
  <name>Blaise Seguin</name>
  <desc>14 domaine des Hocquettes, Suresnes, 92150</desc>
    <url>https://www.warmshowers.org/user/278397</url>
</wpt>
<wpt lat="48.827229" lon="2.372383">
  <name>Arthur Coulon</name>
  <desc>82 rue de Patay, Paris, 75013</desc>
    <url>https://www.warmshowers.org/user/278604</url>
</wpt>
<wpt lat="48.854547" lon="2.275211">
  <name>Donnars Tanguy</name>
  <desc>33 rue de Boulainvilliers , Paris, 75016</desc>
    <url>https://www.warmshowers.org/user/251445</url>
</wpt>
<wpt lat="48.883345" lon="2.121795">
  <name>Audrey &amp; Léo</name>
  <desc>Chemin de Ronde, Croissy-sur-Seine, 78290</desc>
    <url>https://www.warmshowers.org/user/236857</url>
</wpt>
<wpt lat="48.815808" lon="2.412744">
  <name>Sylvain Fresnais</name>
  <desc>20 quai alfortville , Alfortville, 94140</desc>
    <url>https://www.warmshowers.org/user/277771</url>
</wpt>
<wpt lat="48.847136" lon="2.309593">
  <name>Ludovic CHEVOLEAU</name>
  <desc>7 rue césar franck, PARIS, 75015</desc>
    <url>https://www.warmshowers.org/user/52780</url>
</wpt>
<wpt lat="48.852991" lon="2.290713">
  <name>Jordan Brajon</name>
  <desc>27 boulevard de grenelle, Paris, 75015</desc>
    <url>https://www.warmshowers.org/user/277140</url>
</wpt>
<wpt lat="48.833971" lon="2.360766">
  <name>Edouardo Herrera Garay</name>
  <desc>14 rue Campo fornio, Paris , 75013</desc>
    <url>https://www.warmshowers.org/user/268361</url>
</wpt>
<wpt lat="48.878391" lon="2.170837">
  <name>Pascale Canova</name>
  <desc>30 allée Etienne Ventenat, Rueil-Malmaison, 92500</desc>
    <url>https://www.warmshowers.org/user/199542</url>
</wpt>
<wpt lat="48.842112" lon="2.33572">
  <name>Thomas Menez</name>
  <desc>4 rue des Chartreux, Paris, 75006</desc>
    <url>https://www.warmshowers.org/user/278232</url>
</wpt>
<wpt lat="48.844317" lon="2.331518">
  <name>Pierre Peyretou</name>
  <desc>9 rue vavin, Paris, 75006</desc>
    <url>https://www.warmshowers.org/user/246756</url>
</wpt>
<wpt lat="48.836817" lon="2.358457">
  <name>Yacine Boukhelif</name>
  <desc>23 rue Duméril, paris, 75013</desc>
    <url>https://www.warmshowers.org/user/150322</url>
</wpt>
<wpt lat="48.841904" lon="2.340906">
  <name>Mehdi MEDMOUN</name>
  <desc>270 rue Saint-Jacques, 75005, 75005</desc>
    <url>https://www.warmshowers.org/user/268144</url>
</wpt>
<wpt lat="48.821315" lon="2.408061">
  <name>William Jouandeau</name>
  <desc>4 rue de l'Archevêché, CHARENTON LE PONT, 94220</desc>
    <url>https://www.warmshowers.org/user/261222</url>
</wpt>
<wpt lat="48.745099" lon="2.591837">
  <name>Sébastien Grillet</name>
  <desc>9 place chailly, Lésigny, 77150</desc>
    <url>https://www.warmshowers.org/user/272166</url>
</wpt>
<wpt lat="48.840813" lon="2.351928">
  <name>Jerome Galy</name>
  <desc>, Paris, 75005</desc>
    <url>https://www.warmshowers.org/user/95569</url>
</wpt>
<wpt lat="48.78902" lon="2.50037">
  <name>Pierre HEURTIER</name>
  <desc>54 bd des muriers, SAINT MAUR DES FOSSÉS, 94210</desc>
    <url>https://www.warmshowers.org/user/270586</url>
</wpt>
<wpt lat="48.848107" lon="2.327944">
  <name>Ophelie Prada</name>
  <desc>, PARIS, 75006</desc>
    <url>https://www.warmshowers.org/user/222088</url>
</wpt>
<wpt lat="48.811155" lon="2.445201">
  <name>Christian Lambert</name>
  <desc>144 rue de normandie, maisons alfort, 94700</desc>
    <url>https://www.warmshowers.org/user/271752</url>
</wpt>
<wpt lat="48.798042" lon="2.480086">
  <name>gaudin jeanine</name>
  <desc>, saint-maur-des-fossés, 94100</desc>
    <url>https://www.warmshowers.org/user/64580</url>
</wpt>
<wpt lat="48.798042" lon="2.480086">
  <name>Lucas Belliard</name>
  <desc>, Saint Maur des Fossés, 94100</desc>
    <url>https://www.warmshowers.org/user/116098</url>
</wpt>
<wpt lat="47.415472" lon="1.526285">
  <name>Clotilde Loison</name>
  <desc>2 rue des travers chiens, Soings, 41230</desc>
    <url>https://www.warmshowers.org/user/276631</url>
</wpt>
<wpt lat="48.827719" lon="2.400534">
  <name>Julien Soleil</name>
  <desc>16 rue Marius Delcher, CHARENTON LE PONT, 94220</desc>
    <url>https://www.warmshowers.org/user/196900</url>
</wpt>
<wpt lat="48.79395" lon="2.49323">
  <name>Pauline Audibert</name>
  <desc>3 rue Vassal, Saint Maur des fossés, 94100</desc>
    <url>https://www.warmshowers.org/user/251728</url>
</wpt>
<wpt lat="48.843491" lon="2.351834">
  <name>Jules  et Samantha</name>
  <desc>, PARIS, 75005</desc>
    <url>https://www.warmshowers.org/user/266638</url>
</wpt>
<wpt lat="48.843491" lon="2.351834">
  <name>ORNELLA LABOURROIRE</name>
  <desc>, PARIS, 75005</desc>
    <url>https://www.warmshowers.org/user/275375</url>
</wpt>
<wpt lat="48.843491" lon="2.351834">
  <name>Agathe Bour</name>
  <desc>, Paris , 75005</desc>
    <url>https://www.warmshowers.org/user/245546</url>
</wpt>
<wpt lat="48.843491" lon="2.351834">
  <name>Stéphane Bousseau</name>
  <desc>, Paris, 75005</desc>
    <url>https://www.warmshowers.org/user/269533</url>
</wpt>
<wpt lat="48.893496" lon="2.108973">
  <name>Theo Trevalinet</name>
  <desc>, Le pecq, 78230</desc>
    <url>https://www.warmshowers.org/user/266935</url>
</wpt>
<wpt lat="48.8637" lon="2.2769">
  <name>Beatrice Roux</name>
  <desc>, Paris 16è, 75116</desc>
    <url>https://www.warmshowers.org/user/258236</url>
</wpt>
<wpt lat="48.848858" lon="2.335422">
  <name>Cyril Sans</name>
  <desc>, PARIS, 75006</desc>
    <url>https://www.warmshowers.org/user/277901</url>
</wpt>
<wpt lat="48.85269" lon="2.32441">
  <name>Gabriel Chourrier</name>
  <desc>4 rue de Commaille, Paris, 75007</desc>
    <url>https://www.warmshowers.org/user/257608</url>
</wpt>
<wpt lat="48.890867" lon="2.154441">
  <name>glen chavin-collin</name>
  <desc>4 rue françois Laubeuf, Chatou, 78400</desc>
    <url>https://www.warmshowers.org/user/252808</url>
</wpt>
<wpt lat="48.858226" lon="2.313024">
  <name>Benoit Daussin</name>
  <desc>129 rue de grenelle , Paris, 75007</desc>
    <url>https://www.warmshowers.org/user/277433</url>
</wpt>
<wpt lat="48.881899" lon="2.209302">
  <name>Pierre-Baptiste Faure</name>
  <desc>127 rue de la Source, Nanterre, </desc>
    <url>https://www.warmshowers.org/user/208405</url>
</wpt>
<wpt lat="48.836758" lon="2.390289">
  <name>Cyrille Rosset</name>
  <desc>rue coriolis, Paris, 75012</desc>
    <url>https://www.warmshowers.org/user/48011</url>
</wpt>
<wpt lat="48.881233" lon="2.214322">
  <name>Damien B</name>
  <desc>229 Rue Philippe Triaire, Nanterre, 92000</desc>
    <url>https://www.warmshowers.org/user/274850</url>
</wpt>
<wpt lat="48.895652" lon="2.128735">
  <name>Adrien DELBART</name>
  <desc>, LE VESINET, 78110</desc>
    <url>https://www.warmshowers.org/user/157197</url>
</wpt>
<wpt lat="48.864937" lon="2.290941">
  <name>Vincent Lmt</name>
  <desc>, Paris, </desc>
    <url>https://www.warmshowers.org/user/261200</url>
</wpt>
<wpt lat="48.877243" lon="2.237765">
  <name>Marie Lebigot</name>
  <desc>43 bis rue gerhard, PUTEAUX, 92800</desc>
    <url>https://www.warmshowers.org/user/273286</url>
</wpt>
<wpt lat="48.86474" lon="2.294519">
  <name>pierre malleret</name>
  <desc>175 avenue du president wilson, paris, 93210</desc>
    <url>https://www.warmshowers.org/user/269126</url>
</wpt>
<wpt lat="48.853264" lon="2.342128">
  <name>Florian Magnien</name>
  <desc>29 Rue Saint André Des Arts, PARIS, 75006</desc>
    <url>https://www.warmshowers.org/user/206916</url>
</wpt>
<wpt lat="48.879458" lon="2.234014">
  <name>Nicolas Saunier</name>
  <desc>7 rue Curie, Suresnes, 92150</desc>
    <url>https://www.warmshowers.org/user/17797</url>
</wpt>
<wpt lat="48.841144" lon="2.384748">
  <name>Laurence Namysl</name>
  <desc>rue Jorge Semprun, Paris, 75012</desc>
    <url>https://www.warmshowers.org/user/225560</url>
</wpt>
<wpt lat="48.840527" lon="2.38711">
  <name>Kevin Le Beller</name>
  <desc>6 passage du Charolais , Paris, 75012</desc>
    <url>https://www.warmshowers.org/user/153068</url>
</wpt>
<wpt lat="48.8412" lon="2.3876">
  <name>Laurent Nguyen</name>
  <desc>80 rue Traversière, Paris, 75012</desc>
    <url>https://www.warmshowers.org/user/124902</url>
</wpt>
<wpt lat="48.800664" lon="2.500656">
  <name>FRANCOIS &amp; ANNA</name>
  <desc>14 BIS AVENUE DU ROCHER, SAINT MAUR DES FOSSES, 94100</desc>
    <url>https://www.warmshowers.org/user/151848</url>
</wpt>
<wpt lat="48.829365" lon="2.426541">
  <name>Caroline Sanchez</name>
  <desc>, Paris, 75012</desc>
    <url>https://www.warmshowers.org/user/47614</url>
</wpt>
<wpt lat="48.829365" lon="2.426541">
  <name>Agrippa leenhardt</name>
  <desc>, Paris, 75012</desc>
    <url>https://www.warmshowers.org/user/158228</url>
</wpt>
<wpt lat="48.829365" lon="2.426541">
  <name>Ali Mouizina</name>
  <desc>, Paris, 75012</desc>
    <url>https://www.warmshowers.org/user/265126</url>
</wpt>
<wpt lat="48.829365" lon="2.426541">
  <name>Calixte Brasset</name>
  <desc>, Paris, 75012</desc>
    <url>https://www.warmshowers.org/user/271207</url>
</wpt>
<wpt lat="48.829365" lon="2.426541">
  <name>Yves Mansoulié</name>
  <desc>, Paris, 75012</desc>
    <url>https://www.warmshowers.org/user/64451</url>
</wpt>
<wpt lat="48.897215" lon="2.147048">
  <name>Patricia Lago</name>
  <desc>15 bis rue Brunier Bourbon, Chatou, 78400</desc>
    <url>https://www.warmshowers.org/user/269714</url>
</wpt>
<wpt lat="48.572776" lon="2.858968">
  <name>RAFFIN, Jacqueline et Alain</name>
  <desc>, BOMBON, 77720</desc>
    <url>https://www.warmshowers.org/user/164441</url>
</wpt>
<wpt lat="48.882157" lon="2.235075">
  <name>Michèle Dendecker</name>
  <desc>, Puteaux, 92800</desc>
    <url>https://www.warmshowers.org/user/271617</url>
</wpt>
<wpt lat="48.836974" lon="2.407656">
  <name>Tifenn LE BRAZIDEC</name>
  <desc>23, boulevard Soult, Paris, 75012</desc>
    <url>https://www.warmshowers.org/user/269604</url>
</wpt>
<wpt lat="48.896391" lon="2.160098">
  <name>Guillaume CERON</name>
  <desc>, Chatou, </desc>
    <url>https://www.warmshowers.org/user/278618</url>
</wpt>
<wpt lat="48.897701" lon="2.154106">
  <name>Shane MONTGOMERY</name>
  <desc>Chatou, France, CHATOU, 78400</desc>
    <url>https://www.warmshowers.org/user/110489</url>
</wpt>
<wpt lat="48.88341" lon="2.23894">
  <name>Haythem ZAYANI</name>
  <desc>, Puteaux, 92800</desc>
    <url>https://www.warmshowers.org/user/117941</url>
</wpt>
<wpt lat="48.803047" lon="2.505614">
  <name>Cedric Leclercq</name>
  <desc>Avenue de l'est , Saint Maur des Fossés, 94100</desc>
    <url>https://www.warmshowers.org/user/265269</url>
</wpt>
<wpt lat="48.85203" lon="2.365867">
  <name>Corinne Nicolle-Pinchon</name>
  <desc>110 rue de la cerisaie, Bardouville, 76480</desc>
    <url>https://www.warmshowers.org/user/270435</url>
</wpt>
<wpt lat="48.845219" lon="2.388546">
  <name>Marine GOURET</name>
  <desc>6 place Maurice de Fontenay, Paris, 75012</desc>
    <url>https://www.warmshowers.org/user/270041</url>
</wpt>
<wpt lat="48.856614" lon="2.352222">
  <name>Ludovic Martin </name>
  <desc>, Paris , </desc>
    <url>https://www.warmshowers.org/user/199540</url>
</wpt>
<wpt lat="48.856614" lon="2.352222">
  <name>Claire Hene</name>
  <desc>, Paris, </desc>
    <url>https://www.warmshowers.org/user/268049</url>
</wpt>
<wpt lat="48.856614" lon="2.352222">
  <name>Achille et Muriel</name>
  <desc>, Paris, </desc>
    <url>https://www.warmshowers.org/user/150000</url>
</wpt>
<wpt lat="48.856614" lon="2.352222">
  <name>Sophie Mervoyer</name>
  <desc>, Paris, </desc>
    <url>https://www.warmshowers.org/user/269065</url>
</wpt>
<wpt lat="48.856614" lon="2.352222">
  <name>Serge renaud </name>
  <desc>, Paris, </desc>
    <url>https://www.warmshowers.org/user/137726</url>
</wpt>
<wpt lat="48.856614" lon="2.352222">
  <name>Louise Galamez</name>
  <desc>, Paris, 2450</desc>
    <url>https://www.warmshowers.org/user/214181</url>
</wpt>
<wpt lat="48.856614" lon="2.352222">
  <name>Emilie Giboin </name>
  <desc>, Paris , </desc>
    <url>https://www.warmshowers.org/user/260793</url>
</wpt>
<wpt lat="48.856614" lon="2.352222">
  <name>Erwan Navellou</name>
  <desc>, Paris, </desc>
    <url>https://www.warmshowers.org/user/272875</url>
</wpt>
<wpt lat="48.856614" lon="2.352222">
  <name>Bastien RENAUD</name>
  <desc>, Paris, </desc>
    <url>https://www.warmshowers.org/user/262750</url>
</wpt>
<wpt lat="48.856614" lon="2.352222">
  <name>Romane Papillon</name>
  <desc>, Paris, </desc>
    <url>https://www.warmshowers.org/user/235517</url>
</wpt>
<wpt lat="48.856614" lon="2.352222">
  <name>Sudeep Rangi</name>
  <desc>, Paris, </desc>
    <url>https://www.warmshowers.org/user/116667</url>
</wpt>
<wpt lat="48.856614" lon="2.352222">
  <name>Cyprien Bureau</name>
  <desc>To discover Northen Europe and meet people., Paris, </desc>
    <url>https://www.warmshowers.org/user/268935</url>
</wpt>
<wpt lat="48.856614" lon="2.352222">
  <name>Morgane et Alberto </name>
  <desc>, Paris, </desc>
    <url>https://www.warmshowers.org/user/267756</url>
</wpt>
<wpt lat="48.856614" lon="2.352222">
  <name>Natasha Olmi</name>
  <desc>, Paris, </desc>
    <url>https://www.warmshowers.org/user/168933</url>
</wpt>
<wpt lat="48.856614" lon="2.352222">
  <name>tilman zagrodzki</name>
  <desc>, Paris, </desc>
    <url>https://www.warmshowers.org/user/94541</url>
</wpt>
<wpt lat="48.856614" lon="2.352222">
  <name>Ariane Wilson</name>
  <desc>, Paris, </desc>
    <url>https://www.warmshowers.org/user/133507</url>
</wpt>
<wpt lat="48.856614" lon="2.352222">
  <name>Maud Galmiche</name>
  <desc>, Paris, NONE</desc>
    <url>https://www.warmshowers.org/user/152350</url>
</wpt>
<wpt lat="48.856614" lon="2.352222">
  <name>Emmanuelle Lanfray</name>
  <desc>, Paris, </desc>
    <url>https://www.warmshowers.org/user/263353</url>
</wpt>
<wpt lat="48.856614" lon="2.352222">
  <name>Pauline Schaeffer</name>
  <desc>, Paris, </desc>
    <url>https://www.warmshowers.org/user/264601</url>
</wpt>
<wpt lat="48.856614" lon="2.352222">
  <name>Floriane Lemieux</name>
  <desc>, Paris, </desc>
    <url>https://www.warmshowers.org/user/261426</url>
</wpt>
<wpt lat="48.856614" lon="2.352222">
  <name>Irénée Froissart</name>
  <desc>, Paris, </desc>
    <url>https://www.warmshowers.org/user/268177</url>
</wpt>
<wpt lat="48.856614" lon="2.352222">
  <name>Timon Glasser</name>
  <desc>, Paris, </desc>
    <url>https://www.warmshowers.org/user/225269</url>
</wpt>
<wpt lat="48.856614" lon="2.352222">
  <name>Maxime Caillet</name>
  <desc>, Paris, </desc>
    <url>https://www.warmshowers.org/user/274592</url>
</wpt>
<wpt lat="48.856614" lon="2.352222">
  <name>Quentin Veuillet</name>
  <desc>, Paris, </desc>
    <url>https://www.warmshowers.org/user/101984</url>
</wpt>
<wpt lat="48.856614" lon="2.352222">
  <name>Jean-Francois Begoc</name>
  <desc>, PARIS, </desc>
    <url>https://www.warmshowers.org/user/167279</url>
</wpt>
<wpt lat="48.856614" lon="2.352222">
  <name>Vercaemer Matthieu</name>
  <desc>, Paris, </desc>
    <url>https://www.warmshowers.org/user/265862</url>
</wpt>
<wpt lat="48.856614" lon="2.352222">
  <name>Igor Arduin</name>
  <desc>, Paris, </desc>
    <url>https://www.warmshowers.org/user/232541</url>
</wpt>
<wpt lat="48.856614" lon="2.352222">
  <name>Théophile Cantelobre</name>
  <desc>, Paris, </desc>
    <url>https://www.warmshowers.org/user/279143</url>
</wpt>
<wpt lat="48.856614" lon="2.352222">
  <name>Noëlla Bedoucha</name>
  <desc>, Paris, </desc>
    <url>https://www.warmshowers.org/user/268004</url>
</wpt>
<wpt lat="48.856614" lon="2.352222">
  <name>nadia noui</name>
  <desc>, paris, </desc>
    <url>https://www.warmshowers.org/user/127782</url>
</wpt>
<wpt lat="48.856614" lon="2.352222">
  <name>Grobon Laure</name>
  <desc>, Paris, </desc>
    <url>https://www.warmshowers.org/user/279121</url>
</wpt>
<wpt lat="48.856614" lon="2.352222">
  <name>Camille HBP</name>
  <desc>, Paris, </desc>
    <url>https://www.warmshowers.org/user/271103</url>
</wpt>
<wpt lat="48.856614" lon="2.352222">
  <name>Taly Jackwell</name>
  <desc>, Paris, </desc>
    <url>https://www.warmshowers.org/user/273860</url>
</wpt>
<wpt lat="48.856614" lon="2.352222">
  <name>Matthieu Cattoni</name>
  <desc>, Paris, </desc>
    <url>https://www.warmshowers.org/user/270001</url>
</wpt>
<wpt lat="48.856614" lon="2.352222">
  <name>Marie-Anne Morin</name>
  <desc>, Paris, </desc>
    <url>https://www.warmshowers.org/user/159432</url>
</wpt>
<wpt lat="48.856614" lon="2.352222">
  <name>Arnaud Iss</name>
  <desc>, Paris, </desc>
    <url>https://www.warmshowers.org/user/130151</url>
</wpt>
<wpt lat="48.856614" lon="2.352222">
  <name>Shreyas Chopade</name>
  <desc>, PARIS, </desc>
    <url>https://www.warmshowers.org/user/235233</url>
</wpt>
<wpt lat="48.856614" lon="2.352222">
  <name>Louiza Si </name>
  <desc>, Paris, 75</desc>
    <url>https://www.warmshowers.org/user/189895</url>
</wpt>
<wpt lat="48.856614" lon="2.352222">
  <name>Stéphane Geneste</name>
  <desc>, PARIS, </desc>
    <url>https://www.warmshowers.org/user/255681</url>
</wpt>
<wpt lat="48.856614" lon="2.352222">
  <name>Claire Bodelet</name>
  <desc>, Paris, </desc>
    <url>https://www.warmshowers.org/user/248437</url>
</wpt>
<wpt lat="48.856614" lon="2.352222">
  <name>Antoine PLANTY</name>
  <desc>, Paris, </desc>
    <url>https://www.warmshowers.org/user/147023</url>
</wpt>
<wpt lat="48.856614" lon="2.352222">
  <name>Ivan Cvetanovic</name>
  <desc>, Paris, </desc>
    <url>https://www.warmshowers.org/user/265473</url>
</wpt>
<wpt lat="48.856614" lon="2.352222">
  <name>Agathe Derville</name>
  <desc>, Paris, </desc>
    <url>https://www.warmshowers.org/user/145867</url>
</wpt>
<wpt lat="48.856614" lon="2.352222">
  <name>Samuel Angibaud</name>
  <desc>, Paris, </desc>
    <url>https://www.warmshowers.org/user/279047</url>
</wpt>
<wpt lat="48.856614" lon="2.352222">
  <name>Raphaëlle Vital Durand </name>
  <desc>, Paris, </desc>
    <url>https://www.warmshowers.org/user/235185</url>
</wpt>
<wpt lat="48.856614" lon="2.352222">
  <name>Cecile Lize</name>
  <desc>, Paris, </desc>
    <url>https://www.warmshowers.org/user/227642</url>
</wpt>
<wpt lat="48.856614" lon="2.352222">
  <name>Garance Jaunay</name>
  <desc>, Paris, 06000</desc>
    <url>https://www.warmshowers.org/user/258354</url>
</wpt>
<wpt lat="48.856614" lon="2.352222">
  <name>Jie Gao</name>
  <desc>, paris, </desc>
    <url>https://www.warmshowers.org/user/161364</url>
</wpt>
<wpt lat="48.856614" lon="2.352222">
  <name>Victor Salling</name>
  <desc>, Paris, </desc>
    <url>https://www.warmshowers.org/user/247159</url>
</wpt>
<wpt lat="48.856614" lon="2.352222">
  <name>Margot Melinand</name>
  <desc>, Paris, </desc>
    <url>https://www.warmshowers.org/user/268225</url>
</wpt>
<wpt lat="48.856614" lon="2.352222">
  <name>Laura round the world</name>
  <desc>, paris, </desc>
    <url>https://www.warmshowers.org/user/52528</url>
</wpt>
<wpt lat="48.856614" lon="2.352222">
  <name>Lai Corinne </name>
  <desc>, Paris, </desc>
    <url>https://www.warmshowers.org/user/171786</url>
</wpt>
<wpt lat="48.856614" lon="2.352222">
  <name>Arthur Accart</name>
  <desc>, paris , </desc>
    <url>https://www.warmshowers.org/user/259211</url>
</wpt>
<wpt lat="48.856614" lon="2.352222">
  <name>Claire Larivoire</name>
  <desc>, Paris, </desc>
    <url>https://www.warmshowers.org/user/224276</url>
</wpt>
<wpt lat="48.856614" lon="2.352222">
  <name>Etienne Hoarau</name>
  <desc>, Paris, </desc>
    <url>https://www.warmshowers.org/user/100929</url>
</wpt>
<wpt lat="48.856614" lon="2.352222">
  <name>Clothilde Maggioli </name>
  <desc>, Paris, </desc>
    <url>https://www.warmshowers.org/user/268216</url>
</wpt>
<wpt lat="48.856614" lon="2.352222">
  <name>Marie GUIGNON</name>
  <desc>, Paris, </desc>
    <url>https://www.warmshowers.org/user/126698</url>
</wpt>
<wpt lat="48.856614" lon="2.352222">
  <name>Johan Scotto d’aniello</name>
  <desc>, Paris, 75</desc>
    <url>https://www.warmshowers.org/user/267623</url>
</wpt>
<wpt lat="48.856614" lon="2.352222">
  <name>Thomas Bartlett</name>
  <desc>, Paris, </desc>
    <url>https://www.warmshowers.org/user/158516</url>
</wpt>
<wpt lat="48.856614" lon="2.352222">
  <name>Lucile Le Clech</name>
  <desc>, Paris, </desc>
    <url>https://www.warmshowers.org/user/261069</url>
</wpt>
<wpt lat="48.856614" lon="2.352222">
  <name>Emma Bertin</name>
  <desc>, Paris, </desc>
    <url>https://www.warmshowers.org/user/278962</url>
</wpt>
<wpt lat="48.856614" lon="2.352222">
  <name>Jean Pébereau</name>
  <desc>, Paris, </desc>
    <url>https://www.warmshowers.org/user/275526</url>
</wpt>
<wpt lat="48.884748" lon="2.23964">
  <name>Lucile Sourget &amp; Camille Hudin</name>
  <desc>, Puteaux, </desc>
    <url>https://www.warmshowers.org/user/263589</url>
</wpt>
<wpt lat="48.864049" lon="2.331053">
  <name>Paul BEZBORODKO</name>
  <desc>, Paris, 75001</desc>
    <url>https://www.warmshowers.org/user/265393</url>
</wpt>
<wpt lat="48.873861" lon="2.294941">
  <name>Alexandra Cadet</name>
  <desc>123 avenue du Général de Gaulle, La garenne Colombes, 92250</desc>
    <url>https://www.warmshowers.org/user/89355</url>
</wpt>
<wpt lat="48.815086" lon="2.484863">
  <name>Corinne  Lootvoet Nahmias</name>
  <desc>22 rue du docteur roux, champigny, 94500</desc>
    <url>https://www.warmshowers.org/user/217592</url>
</wpt>
<wpt lat="47.741583" lon="0.886481">
  <name>Elsa Defiez-Boulay</name>
  <desc>, Lavardin, </desc>
    <url>https://www.warmshowers.org/user/275175</url>
</wpt>
<wpt lat="48.853996" lon="2.37387">
  <name>Julien Loth</name>
  <desc>Passage Thiéré, Paris, 75011</desc>
    <url>https://www.warmshowers.org/user/205404</url>
</wpt>
<wpt lat="48.873821" lon="2.301454">
  <name>Noé Keren</name>
  <desc>, Paris, 75002</desc>
    <url>https://www.warmshowers.org/user/268750</url>
</wpt>
<wpt lat="48.894182" lon="2.207113">
  <name>Florian CHARPENTIER</name>
  <desc>, Nanterre, 92000</desc>
    <url>https://www.warmshowers.org/user/96875</url>
</wpt>
<wpt lat="48.859362" lon="2.35618">
  <name>Mizu LOEB</name>
  <desc>, PARIS, 75004</desc>
    <url>https://www.warmshowers.org/user/228827</url>
</wpt>
<wpt lat="48.835194" lon="2.435143">
  <name>Camille Rousseau</name>
  <desc>, Paris, 75012</desc>
    <url>https://www.warmshowers.org/user/242835</url>
</wpt>
<wpt lat="48.835194" lon="2.435143">
  <name>astrid ghaffarzadeh</name>
  <desc>, paris, 75012</desc>
    <url>https://www.warmshowers.org/user/72304</url>
</wpt>
<wpt lat="48.835194" lon="2.435143">
  <name>José Corps</name>
  <desc>, Paris, 75012</desc>
    <url>https://www.warmshowers.org/user/120780</url>
</wpt>
<wpt lat="48.835194" lon="2.435143">
  <name>Ewa Gielniak</name>
  <desc>, Paris, 75012</desc>
    <url>https://www.warmshowers.org/user/259818</url>
</wpt>
<wpt lat="48.835194" lon="2.435143">
  <name>Sacha (Graham) Dyer</name>
  <desc>, Paris, 75012</desc>
    <url>https://www.warmshowers.org/user/88211</url>
</wpt>
<wpt lat="48.862455" lon="2.348496">
  <name>Poli Philippe</name>
  <desc>rue Pierre Lescot, Paris, 750019</desc>
    <url>https://www.warmshowers.org/user/192648</url>
</wpt>
<wpt lat="48.860366" lon="2.356068">
  <name>Nadhia Godefroy</name>
  <desc>, Paris, </desc>
    <url>https://www.warmshowers.org/user/264483</url>
</wpt>
<wpt lat="48.851879" lon="2.386391">
  <name>Ben Harris and Colette Genevaux</name>
  <desc>rue Titon, Paris, 75011</desc>
    <url>https://www.warmshowers.org/user/71134</url>
</wpt>
<wpt lat="48.871872" lon="2.317643">
  <name>Joseph Robert</name>
  <desc>, Paris , 75008</desc>
    <url>https://www.warmshowers.org/user/274986</url>
</wpt>
<wpt lat="48.857877" lon="2.369587">
  <name>Michael Gregory</name>
  <desc>38 rue Saint Sabin, Paris, 75011</desc>
    <url>https://www.warmshowers.org/user/166659</url>
</wpt>
<wpt lat="48.865396" lon="2.343314">
  <name>Clarisse nantes </name>
  <desc>44 rue Étienne Marcel, PARIS, 75001</desc>
    <url>https://www.warmshowers.org/user/207844</url>
</wpt>
<wpt lat="48.842832" lon="2.417864">
  <name>Simon Gousset</name>
  <desc>, Saint Mandé, 94160</desc>
    <url>https://www.warmshowers.org/user/263730</url>
</wpt>
<wpt lat="48.842832" lon="2.417864">
  <name>Dimitri Filimonov</name>
  <desc>, Saint-Mandé, 94160</desc>
    <url>https://www.warmshowers.org/user/257606</url>
</wpt>
<wpt lat="48.858786" lon="2.367495">
  <name>Jean-Baptiste Kechi</name>
  <desc>83 boulevard beaumarchais, Paris, 75003</desc>
    <url>https://www.warmshowers.org/user/201079</url>
</wpt>
<wpt lat="48.885499" lon="2.265371">
  <name>Tavernier Laurent</name>
  <desc>, Neuilly Sur Seine, 92200</desc>
    <url>https://www.warmshowers.org/user/229890</url>
</wpt>
<wpt lat="48.854421" lon="2.38407">
  <name>Kristina Bertuletti</name>
  <desc>Rue de Charonne, Paris, 75011</desc>
    <url>https://www.warmshowers.org/user/199985</url>
</wpt>
<wpt lat="48.862597" lon="2.357634">
  <name>Rodrigo Ribeiro</name>
  <desc>Rue du temple , Paris, </desc>
    <url>https://www.warmshowers.org/user/274356</url>
</wpt>
<wpt lat="48.858891" lon="2.371345">
  <name>Bertrand Vidh</name>
  <desc>, Paris, 75011</desc>
    <url>https://www.warmshowers.org/user/259771</url>
</wpt>
<wpt lat="48.804968" lon="2.523688">
  <name>Clothilde Courteau</name>
  <desc>rue de musselburgh, Champigny sur Marne , 94500</desc>
    <url>https://www.warmshowers.org/user/208935</url>
</wpt>
<wpt lat="48.863162" lon="2.357998">
  <name>Antoine Cottin</name>
  <desc>117 rue du temple, PARIS, 75003</desc>
    <url>https://www.warmshowers.org/user/259808</url>
</wpt>
<wpt lat="48.845496" lon="2.416883">
  <name>Noémie Tournilhac</name>
  <desc>6 rue de l'amiral Courbet, ST MANDE, 94160</desc>
    <url>https://www.warmshowers.org/user/267659</url>
</wpt>
<wpt lat="48.867564" lon="2.34399">
  <name>Ambroise DEL</name>
  <desc>, Paris, 75002</desc>
    <url>https://www.warmshowers.org/user/271662</url>
</wpt>
<wpt lat="48.8574" lon="2.3795">
  <name>Philippe Robichaud</name>
  <desc>121, rue Oberkampf, Paris, 75011</desc>
    <url>https://www.warmshowers.org/user/248264</url>
</wpt>
<wpt lat="48.8574" lon="2.3795">
  <name>Adeline paté</name>
  <desc>, Paris, 75011</desc>
    <url>https://www.warmshowers.org/user/120793</url>
</wpt>
<wpt lat="48.86348" lon="2.359115">
  <name>Kevin Cottier</name>
  <desc>, Paris, 75003</desc>
    <url>https://www.warmshowers.org/user/268103</url>
</wpt>
<wpt lat="48.857439" lon="2.380537">
  <name>Anne Charlotte ALAZARD</name>
  <desc>Voltaire, Paris, 75011</desc>
    <url>https://www.warmshowers.org/user/184713</url>
</wpt>
<wpt lat="48.866561" lon="2.349277">
  <name>Mathieu CASSAN</name>
  <desc>rue Dussoubs, PARIS, 75002</desc>
    <url>https://www.warmshowers.org/user/70421</url>
</wpt>
<wpt lat="48.857798" lon="2.380049">
  <name>Julie Marche</name>
  <desc>Boulevard Voltaire, Paris, 75011</desc>
    <url>https://www.warmshowers.org/user/245360</url>
</wpt>
<wpt lat="48.857808" lon="2.380273">
  <name>Darras Pierre</name>
  <desc>, Paris, 75011</desc>
    <url>https://www.warmshowers.org/user/34655</url>
</wpt>
<wpt lat="48.855925" lon="2.38738">
  <name>Laura DURAND</name>
  <desc>12 Passage alexandrine , Paris 11e Arrondissement, 75011</desc>
    <url>https://www.warmshowers.org/user/239007</url>
</wpt>
<wpt lat="48.853918" lon="2.393987">
  <name>muriel Resal</name>
  <desc>43 rue Alexandre Dumas, Paris 11, 75011</desc>
    <url>https://www.warmshowers.org/user/13005</url>
</wpt>
<wpt lat="48.857993" lon="2.381153">
  <name>Edouard Borel</name>
  <desc>, Paris, 75011</desc>
    <url>https://www.warmshowers.org/user/269936</url>
</wpt>
<wpt lat="48.857993" lon="2.381153">
  <name>Guillaume Vera-Navas</name>
  <desc>, Paris, 75011</desc>
    <url>https://www.warmshowers.org/user/275395</url>
</wpt>
<wpt lat="48.857993" lon="2.381153">
  <name>Valentine Vasak</name>
  <desc>, Paris, 75011</desc>
    <url>https://www.warmshowers.org/user/70201</url>
</wpt>
<wpt lat="48.857993" lon="2.381153">
  <name>Justine Fayet</name>
  <desc>, Paris, 75011</desc>
    <url>https://www.warmshowers.org/user/277788</url>
</wpt>
<wpt lat="48.857993" lon="2.381153">
  <name>Vincent DEBELLEFROID</name>
  <desc>, Paris, 75011</desc>
    <url>https://www.warmshowers.org/user/257115</url>
</wpt>
<wpt lat="48.857993" lon="2.381153">
  <name>Damien Dupuy</name>
  <desc>, Paris, 75011</desc>
    <url>https://www.warmshowers.org/user/80596</url>
</wpt>
<wpt lat="48.848352" lon="2.416235">
  <name>Daniel Hortelano</name>
  <desc>Rue commandant l’Herminier, Paris , 75020</desc>
    <url>https://www.warmshowers.org/user/260108</url>
</wpt>
<wpt lat="48.866098" lon="2.35955">
  <name>Mélanie Claudot</name>
  <desc>70 rue de turbigo, Paris, 75003</desc>
    <url>https://www.warmshowers.org/user/269032</url>
</wpt>
<wpt lat="48.860815" lon="2.378419">
  <name>Quentin Morcrette</name>
  <desc>Rochebrune, Paris, 75011</desc>
    <url>https://www.warmshowers.org/user/199252</url>
</wpt>
<wpt lat="47.944861" lon="0.745874">
  <name>Nelly et Yves LECOMTE</name>
  <desc>3, ruelle du Presbytère, Conflans sur Anille, 72120</desc>
    <url>https://www.warmshowers.org/user/10010</url>
</wpt>
<wpt lat="48.881063" lon="2.304649">
  <name>Christophe Balmadier</name>
  <desc>28 rue Mederic 75017 PARIS, PARIS, 75017</desc>
    <url>https://www.warmshowers.org/user/203388</url>
</wpt>
<wpt lat="48.843745" lon="2.432611">
  <name>Angélique CASTILHO</name>
  <desc>Avenue Franklin Roosevelt, Vincennes, 94300</desc>
    <url>https://www.warmshowers.org/user/223458</url>
</wpt>
<wpt lat="48.859919" lon="2.382517">
  <name>Antton L</name>
  <desc>16 rue saint maur, Paris, 75011</desc>
    <url>https://www.warmshowers.org/user/252209</url>
</wpt>
<wpt lat="48.854555" lon="2.400594">
  <name>Yurok Jang</name>
  <desc>rue des vignoles, Paris, 75020</desc>
    <url>https://www.warmshowers.org/user/77143</url>
</wpt>
<wpt lat="48.857894" lon="2.390704">
  <name>Marc Corso</name>
  <desc>145 bouvelard de Charonne, Paris 11e, 75011</desc>
    <url>https://www.warmshowers.org/user/274281</url>
</wpt>
<wpt lat="48.854968" lon="2.400962">
  <name>Claire Lavalette</name>
  <desc>61 rue des Vignoles, Paris, 75020</desc>
    <url>https://www.warmshowers.org/user/215529</url>
</wpt>
<wpt lat="48.854576" lon="2.403024">
  <name>Sebastian misssglia</name>
  <desc>rue des haies , Paris, 75020</desc>
    <url>https://www.warmshowers.org/user/156052</url>
</wpt>
<wpt lat="48.856636" lon="1.38221">
  <name>Mathilde Devaux</name>
  <desc>, ezy sur eure, 27530</desc>
    <url>https://www.warmshowers.org/user/183455</url>
</wpt>
<wpt lat="48.864087" lon="2.37436">
  <name>Renaud Vignolles</name>
  <desc>, PARIS, 75011</desc>
    <url>https://www.warmshowers.org/user/222870</url>
</wpt>
<wpt lat="48.861599" lon="2.382982">
  <name>Marie &amp; Cedric</name>
  <desc>112 rue du chemin vert, Paris, 75011</desc>
    <url>https://www.warmshowers.org/user/35928</url>
</wpt>
<wpt lat="48.884975" lon="2.297134">
  <name>Elsa Défontaines </name>
  <desc>, Paris, 75017</desc>
    <url>https://www.warmshowers.org/user/52330</url>
</wpt>
<wpt lat="48.884975" lon="2.297134">
  <name>Hugues-Antoine Roussillo </name>
  <desc>, Paris, 75017</desc>
    <url>https://www.warmshowers.org/user/225990</url>
</wpt>
<wpt lat="48.884975" lon="2.297134">
  <name>Paul-Xavier Billette</name>
  <desc>, Paris, 75017</desc>
    <url>https://www.warmshowers.org/user/165453</url>
</wpt>
<wpt lat="48.899524" lon="2.231196">
  <name>Jean-Baptiste CATTÉ</name>
  <desc>, Courbevoie, 92400</desc>
    <url>https://www.warmshowers.org/user/210579</url>
</wpt>
<wpt lat="48.870697" lon="2.353269">
  <name>Yann Geffriaud</name>
  <desc>18 RUE DU FAUBOURG SAINT DENIS, PARIS, 75010</desc>
    <url>https://www.warmshowers.org/user/168668</url>
</wpt>
<wpt lat="48.857268" lon="2.398973">
  <name>Alice Piquet</name>
  <desc>54 rue de Bagnolet, Paris, 75020</desc>
    <url>https://www.warmshowers.org/user/241335</url>
</wpt>
<wpt lat="47.754055" lon="0.858108">
  <name>Guy et Elisabeth CHEVEREAU</name>
  <desc>, Montoire, 41800</desc>
    <url>https://www.warmshowers.org/user/102871</url>
</wpt>
<wpt lat="48.870603" lon="2.356308">
  <name>Jules Muzard</name>
  <desc>39 rue du faubourg st martin, PARIS, 75010</desc>
    <url>https://www.warmshowers.org/user/271638</url>
</wpt>